{
"type": "FeatureCollection",
"name": "test",
"crs": { "type": "name", "properties": { "name": "urn:ogc:def:crs:ESRI::54078" } },
"features": [
{ "type": "Feature", "properties": { "OBJECTID": 6, "Match_addr": "232 Grand St, New York, New York, 10013", "X": -73.99503912, "Y": 40.7186085, "Type": "storefront", "Name": "Hanging Longan", "Address": "232 Grand St.", "Borough": "Manhattan", "Produce Ty": "F", "2006": 1, "2007": 1, "2008": 1, "2009": 1, "2010": 1, "2011": 1, "2012": 1, "2013": 1, "2014": 1, "2015": 1, "2016": 1, "2017": 1, "2018": 1, "2019": 1, "2020": 1, "2021": 1, "2022": 1, "2023": 1, "osm_type": "way", "display_na": "232, Grand Street, Little Italy, Manhattan, New York County, New York, 10013, United States", "place_id": "336919607", "class": "place", "type_2": "house", "road": "Grand Street", "village": null, "city_distr": null, "town": null, "city": "New York", "state": "New York", "country": "United States", "postcode": "10013" }, "geometry": { "type": "Point", "coordinates": [ -6431814.116024578921497, 4581213.108041783794761 ] } },
{ "type": "Feature", "properties": { "OBJECTID": 10, "Match_addr": "223 Grand St, New York, New York, 10013", "X": -73.99562614, "Y": 40.71862999, "Type": "cart", "Name": "Large Longan", "Address": "223 Grand St.", "Borough": "Manhattan", "Produce Ty": "F", "2006": 1, "2007": 1, "2008": 1, "2009": 1, "2010": 1, "2011": 1, "2012": 1, "2013": 1, "2014": 0, "2015": 0, "2016": 0, "2017": 0, "2018": 0, "2019": 0, "2020": 0, "2021": 0, "2022": 0, "2023": 0, "osm_type": "node", "display_na": "A.M. Pharmacy II, 223, Grand Street, Little Italy, Manhattan, New York County, New York, 10013, United States", "place_id": "15266712", "class": "shop", "type_2": "chemist", "road": "Grand Street", "village": null, "city_distr": null, "town": null, "city": "New York", "state": "New York", "country": "United States", "postcode": "10013" }, "geometry": { "type": "Point", "coordinates": [ -6431852.162787212990224, 4581228.325399001128972 ] } },
{ "type": "Feature", "properties": { "OBJECTID": 24, "Match_addr": "130 Mott St, New York, New York, 10013", "X": -73.99669658000001, "Y": 40.71838684, "Type": "storefront", "Name": "temp 7", "Address": "130 Mott St.", "Borough": "Manhattan", "Produce Ty": "F", "2006": 1, "2007": 1, "2008": 1, "2009": 1, "2010": 1, "2011": 0, "2012": 0, "2013": 0, "2014": 0, "2015": 0, "2016": 0, "2017": 0, "2018": 0, "2019": 0, "2020": 0, "2021": 0, "2022": 0, "2023": 0, "osm_type": "way", "display_na": "130, Mott Street, Chinatown, Manhattan, New York County, New York, 10013, United States", "place_id": "336919612", "class": "place", "type_2": "house", "road": "Mott Street", "village": null, "city_distr": null, "town": null, "city": "New York", "state": "New York", "country": "United States", "postcode": "10013" }, "geometry": { "type": "Point", "coordinates": [ -6431949.512646762654185, 4581200.769096419215202 ] } },
{ "type": "Feature", "properties": { "OBJECTID": 38, "Match_addr": "110 Mott St, New York, New York, 10013", "X": -73.99716579, "Y": 40.71764802, "Type": "makeshift", "Name": "pre-construction veggies", "Address": "110 Mott St.", "Borough": "Manhattan", "Produce Ty": "F", "2006": 1, "2007": 0, "2008": 0, "2009": 0, "2010": 0, "2011": 0, "2012": 0, "2013": 0, "2014": 0, "2015": 0, "2016": 0, "2017": 0, "2018": 0, "2019": 0, "2020": 0, "2021": 0, "2022": 0, "2023": 0, "osm_type": "way", "display_na": "110, Mott Street, Chinatown, Manhattan, New York County, New York, 10013, United States", "place_id": "336918311", "class": "place", "type_2": "house", "road": "Mott Street", "village": null, "city_distr": null, "town": null, "city": "New York", "state": "New York", "country": "United States", "postcode": "10013" }, "geometry": { "type": "Point", "coordinates": [ -6432022.20283173955977, 4581101.116196908056736 ] } },
{ "type": "Feature", "properties": { "OBJECTID": 46, "Match_addr": "92 Mulberry St, New York, New York, 10013", "X": -73.99869017, "Y": 40.71679587, "Type": "cart", "Name": "BEA", "Address": "92 Mulberry St.", "Borough": "Manhattan", "Produce Ty": "F", "2006": 1, "2007": 1, "2008": 1, "2009": 1, "2010": 1, "2011": 1, "2012": 1, "2013": 1, "2014": 1, "2015": 1, "2016": 1, "2017": 1, "2018": 1, "2019": 1, "2020": 1, "2021": 1, "2022": 1, "2023": 1, "osm_type": "way", "display_na": "92, Mulberry Street, Manhattan Community Board 3, Manhattan, New York County, New York, 10013, United States", "place_id": "336916233", "class": "place", "type_2": "house", "road": "Mulberry Street", "village": null, "city_distr": null, "town": null, "city": "New York", "state": "New York", "country": "United States", "postcode": "10013" }, "geometry": { "type": "Point", "coordinates": [ -6432169.464660265482962, 4581018.711579248309135 ] } },
{ "type": "Feature", "properties": { "OBJECTID": 47, "Match_addr": "56 Elizabeth St, New York, New York, 10013", "X": -73.99641379000001, "Y": 40.71728323, "Type": "store", "Name": "Mee Li Fruit and Vegetable Co.", "Address": "56 Elizabeth St. B", "Borough": "Manhattan", "Produce Ty": "F", "2006": 1, "2007": 1, "2008": 1, "2009": 1, "2010": 1, "2011": 1, "2012": 1, "2013": 1, "2014": 1, "2015": 1, "2016": 1, "2017": 1, "2018": 1, "2019": 1, "2020": 0, "2021": 0, "2022": 0, "2023": 0, "osm_type": "node", "display_na": "Be Beauty Solution Skincare, 56, Elizabeth Street, Chinatown, Manhattan, New York County, New York, 10013, United States", "place_id": "15284488", "class": "shop", "type_2": "beauty", "road": "Elizabeth Street", "village": null, "city_distr": null, "town": null, "city": "New York", "state": "New York", "country": "United States", "postcode": "10013" }, "geometry": { "type": "Point", "coordinates": [ -6431955.137677742168307, 4581077.211932070553303 ] } },
{ "type": "Feature", "properties": { "OBJECTID": 48, "Match_addr": "200 Canal St, New York, New York, 10013", "X": -73.99835218, "Y": 40.71686351, "Type": "cart", "Name": "Taipan Bakery", "Address": "200 Canal St.", "Borough": "Manhattan", "Produce Ty": "F", "2006": 1, "2007": 1, "2008": 1, "2009": 1, "2010": 1, "2011": 1, "2012": 1, "2013": 1, "2014": 1, "2015": 1, "2016": 1, "2017": 1, "2018": 1, "2019": 1, "2020": 1, "2021": 1, "2022": 1, "2023": 1, "osm_type": "node", "display_na": "200, Canal Street, Chinatown, Manhattan, New York County, New York, 10013, United States", "place_id": "15332697", "class": "place", "type_2": "house", "road": "Canal Street", "village": null, "city_distr": null, "town": null, "city": "New York", "state": "New York", "country": "United States", "postcode": "10013" }, "geometry": { "type": "Point", "coordinates": [ -6432137.227455380372703, 4581030.806417910382152 ] } },
{ "type": "Feature", "properties": { "OBJECTID": 50, "Match_addr": "93 Mulberry St, New York, New York, 10013", "X": -73.99881436, "Y": 40.71692805, "Type": "cart", "Name": "Chinatrust I", "Address": "93 Mulberry St.", "Borough": "Manhattan", "Produce Ty": "F", "2006": 1, "2007": 1, "2008": 1, "2009": 1, "2010": 1, "2011": 1, "2012": 1, "2013": 1, "2014": 1, "2015": 1, "2016": 1, "2017": 1, "2018": 1, "2019": 1, "2020": 1, "2021": 1, "2022": 1, "2023": 1, "osm_type": "way", "display_na": "93, Mulberry Street, Manhattan Community Board 3, Manhattan, New York County, New York, 10013, United States", "place_id": "336916244", "class": "place", "type_2": "house", "road": "Mulberry Street", "village": null, "city_distr": null, "town": null, "city": "New York", "state": "New York", "country": "United States", "postcode": "10013" }, "geometry": { "type": "Point", "coordinates": [ -6432172.645342050120234, 4581042.871872706338763 ] } },
{ "type": "Feature", "properties": { "OBJECTID": 58, "Match_addr": "120 Walker St, New York, New York, 10013", "X": -73.99965222, "Y": 40.71749404, "Type": "storefront", "Name": "Lung Hing Fruit and Veg. Corp", "Address": "120 Walker St.", "Borough": "Manhattan", "Produce Ty": "F", "2006": 1, "2007": 0, "2008": 0, "2009": 0, "2010": 0, "2011": 0, "2012": 0, "2013": 0, "2014": 0, "2015": 0, "2016": 0, "2017": 0, "2018": 0, "2019": 0, "2020": 0, "2021": 0, "2022": 0, "2023": 0, "osm_type": "node", "display_na": "120, Walker Street, Five Points, Manhattan, New York County, New York, 10013, United States", "place_id": "15304676", "class": "place", "type_2": "house", "road": "Walker Street", "village": null, "city_distr": null, "town": null, "city": "New York", "state": "New York", "country": "United States", "postcode": "10013" }, "geometry": { "type": "Point", "coordinates": [ -6432234.765785622410476, 4581102.546339092776179 ] } },
{ "type": "Feature", "properties": { "OBJECTID": 59, "Match_addr": "241 Canal St, New York, New York, 10013", "X": -74.000000900000003, "Y": 40.71825935, "Type": "cart", "Name": "Starbucks", "Address": "241 Canal St.", "Borough": "Manhattan", "Produce Ty": "F", "2006": 1, "2007": 1, "2008": 0, "2009": 0, "2010": 0, "2011": 0, "2012": 0, "2013": 0, "2014": 0, "2015": 0, "2016": 0, "2017": 0, "2018": 0, "2019": 0, "2020": 0, "2021": 0, "2022": 0, "2023": 0, "osm_type": "node", "display_na": "Chinatown Centre Gift shop, 241, Canal Street, Little Italy, Manhattan, New York County, New York, 10013, United States", "place_id": "374726000", "class": "shop", "type_2": "gift", "road": "Canal Street", "village": null, "city_distr": null, "town": null, "city": "New York", "state": "New York", "country": "United States", "postcode": "10013" }, "geometry": { "type": "Point", "coordinates": [ -6432238.820263209752738, 4581189.375207959674299 ] } },
{ "type": "Feature", "properties": { "OBJECTID": 61, "Match_addr": "153 Centre St, New York, New York, 10013", "X": -74.00026619, "Y": 40.7178623, "Type": "cart", "Name": "Canal St. Station", "Address": "153 D Centre St.", "Borough": "Manhattan", "Produce Ty": "F", "2006": 1, "2007": 1, "2008": 1, "2009": 1, "2010": 1, "2011": 1, "2012": 1, "2013": 1, "2014": 1, "2015": 1, "2016": 1, "2017": 1, "2018": 1, "2019": 1, "2020": 0, "2021": 0, "2022": 0, "2023": 0, "osm_type": "node", "display_na": "153, Centre Street, Chinatown, Manhattan, New York County, New York, 10013, United States", "place_id": "13546723", "class": "place", "type_2": "house", "road": "Centre Street", "village": null, "city_distr": null, "town": null, "city": "New York", "state": "New York", "country": "United States", "postcode": "10013" }, "geometry": { "type": "Point", "coordinates": [ -6432274.64055316708982, 4581141.898356197401881 ] } },
{ "type": "Feature", "properties": { "OBJECTID": 62, "Match_addr": "250 Canal St, New York, New York, 10013", "X": -74.00052625, "Y": 40.71834902, "Type": "cart", "Name": "Chinese", "Address": "250 Canal St.", "Borough": "Manhattan", "Produce Ty": "F", "2006": 1, "2007": 1, "2008": 1, "2009": 1, "2010": 1, "2011": 1, "2012": 0, "2013": 0, "2014": 0, "2015": 0, "2016": 0, "2017": 0, "2018": 0, "2019": 0, "2020": 0, "2021": 0, "2022": 0, "2023": 0, "osm_type": "way", "display_na": "TD Bank, 250, Canal Street, Chinatown, Manhattan, New York County, New York, 10013, United States", "place_id": "377434905", "class": "amenity", "type_2": "bank", "road": "Canal Street", "village": null, "city_distr": null, "town": null, "city": "New York", "state": "New York", "country": "United States", "postcode": "10013" }, "geometry": { "type": "Point", "coordinates": [ -6432289.16472542565316, 4581177.455775638110936 ] } },
{ "type": "Feature", "properties": { "OBJECTID": 68, "Match_addr": "210 Canal St, New York, New York, 10013", "X": -73.99894093, "Y": 40.71706115, "Type": "cart", "Name": "Music and Gifts", "Address": "210 Canal St.", "Borough": "Manhattan", "Produce Ty": "F", "2006": 1, "2007": 1, "2008": 1, "2009": 1, "2010": 1, "2011": 1, "2012": 1, "2013": 1, "2014": 1, "2015": 1, "2016": 1, "2017": 1, "2018": 1, "2019": 1, "2020": 1, "2021": 1, "2022": 1, "2023": 1, "osm_type": "node", "display_na": "Canal Street Pharmacy, 210, Canal Street, Manhattan Community Board 3, Manhattan, New York County, New York, 10013, United States", "place_id": "15282347", "class": "amenity", "type_2": "pharmacy", "road": "Canal Street", "village": null, "city_distr": null, "town": null, "city": "New York", "state": "New York", "country": "United States", "postcode": "10013" }, "geometry": { "type": "Point", "coordinates": [ -6432192.327816565521061, 4581054.511402925476432 ] } },
{ "type": "Feature", "properties": { "OBJECTID": 69, "Match_addr": "208 Canal St, New York, New York, 10013", "X": -73.99901477, "Y": 40.71710139, "Type": "cart", "Name": "Jackfruit and Horns", "Address": "208 Canal St.", "Borough": "Manhattan", "Produce Ty": "F", "2006": 1, "2007": 1, "2008": 1, "2009": 1, "2010": 1, "2011": 1, "2012": 1, "2013": 1, "2014": 1, "2015": 1, "2016": 1, "2017": 1, "2018": 1, "2019": 1, "2020": 1, "2021": 1, "2022": 1, "2023": 1, "osm_type": "way", "display_na": "208, Canal Street, Manhattan Community Board 3, Manhattan, New York County, New York, 10013, United States", "place_id": "15352938", "class": "building", "type_2": "yes", "road": "Canal Street", "village": null, "city_distr": null, "town": null, "city": "New York", "state": "New York", "country": "United States", "postcode": "10013" }, "geometry": { "type": "Point", "coordinates": [ -6432188.175115190446377, 4581043.339704279787838 ] } },
{ "type": "Feature", "properties": { "OBJECTID": 71, "Match_addr": "198 Canal St, New York, New York, 10013", "X": -73.99830592000001, "Y": 40.7168467, "Type": "cart", "Name": "Peking", "Address": "198 Canal St.", "Borough": "Manhattan", "Produce Ty": "F", "2006": 1, "2007": 1, "2008": 1, "2009": 1, "2010": 1, "2011": 1, "2012": 1, "2013": 1, "2014": 1, "2015": 1, "2016": 1, "2017": 1, "2018": 1, "2019": 1, "2020": 1, "2021": 1, "2022": 1, "2023": 1, "osm_type": "node", "display_na": "198, Canal Street, Chinatown, Manhattan, New York County, New York, 10013, United States", "place_id": "15311411", "class": "place", "type_2": "house", "road": "Canal Street", "village": null, "city_distr": null, "town": null, "city": "New York", "state": "New York", "country": "United States", "postcode": "10013" }, "geometry": { "type": "Point", "coordinates": [ -6432133.676381866447628, 4581028.92028646916151 ] } },
{ "type": "Feature", "properties": { "OBJECTID": 73, "Match_addr": "17 E Broadway, New York, New York, 10002", "X": -73.99702944000001, "Y": 40.71338079, "Type": "storefront", "Name": "Number One Long Hing Market Inc. West 2", "Address": "17 East Broadway", "Borough": "Manhattan", "Produce Ty": "F", "2006": 1, "2007": 1, "2008": 1, "2009": 1, "2010": 1, "2011": 1, "2012": 1, "2013": 1, "2014": 1, "2015": 1, "2016": 1, "2017": 1, "2018": 1, "2019": 1, "2020": 1, "2021": 0, "2022": 0, "2023": 0, "osm_type": "node", "display_na": "Sam Wai, 17, East Broadway, Manhattan Community Board 3, Manhattan, New York County, New York, 10002, United States", "place_id": "15296830", "class": "shop", "type_2": "alcohol", "road": "East Broadway", "village": null, "city_distr": null, "town": null, "city": "New York", "state": "New York", "country": "United States", "postcode": "10002" }, "geometry": { "type": "Point", "coordinates": [ -6432117.856587062589824, 4580640.889538571238518 ] } },
{ "type": "Feature", "properties": { "OBJECTID": 74, "Match_addr": "17 E Broadway, New York, New York, 10002", "X": -73.99702944000001, "Y": 40.71338079, "Type": "storefront", "Name": "Number One Long Hing Market Inc.", "Address": "17 East Broadway", "Borough": "Manhattan", "Produce Ty": "F", "2006": 1, "2007": 1, "2008": 1, "2009": 1, "2010": 1, "2011": 1, "2012": 1, "2013": 1, "2014": 1, "2015": 1, "2016": 1, "2017": 0, "2018": 0, "2019": 0, "2020": 0, "2021": 0, "2022": 0, "2023": 0, "osm_type": "node", "display_na": "Sam Wai, 17, East Broadway, Manhattan Community Board 3, Manhattan, New York County, New York, 10002, United States", "place_id": "15296830", "class": "shop", "type_2": "alcohol", "road": "East Broadway", "village": null, "city_distr": null, "town": null, "city": "New York", "state": "New York", "country": "United States", "postcode": "10002" }, "geometry": { "type": "Point", "coordinates": [ -6432117.856587062589824, 4580640.889538571238518 ] } },
{ "type": "Feature", "properties": { "OBJECTID": 75, "Match_addr": "37 E Broadway, New York, New York, 10002", "X": -73.9962754, "Y": 40.71344302, "Type": "storefront", "Name": "Sun Tung Wui Market Inc.", "Address": "37 East Broadway", "Borough": "Manhattan", "Produce Ty": "F", "2006": 1, "2007": 1, "2008": 1, "2009": 1, "2010": 0, "2011": 0, "2012": 0, "2013": 0, "2014": 0, "2015": 0, "2016": 0, "2017": 0, "2018": 0, "2019": 0, "2020": 0, "2021": 0, "2022": 0, "2023": 0, "osm_type": "node", "display_na": "37, East Broadway, Manhattan Community Board 3, Manhattan, New York County, New York, 10002, United States", "place_id": "15343595", "class": "place", "type_2": "house", "road": "East Broadway", "village": null, "city_distr": null, "town": null, "city": "New York", "state": "New York", "country": "United States", "postcode": "10002" }, "geometry": { "type": "Point", "coordinates": [ -6432050.763823330402374, 4580649.059098518453538 ] } }
]
}
