{
"type": "FeatureCollection",
"name": "Vendor Longan",
"crs": { "type": "name", "properties": { "name": "urn:ogc:def:crs:OGC:1.3:CRS84" } },
"features": [
{ "type": "Feature", "properties": { "OBJECTID": 16, "Match_addr": "146 Mott St, New York, New York, 10013", "X": -73.99643012, "Y": 40.71897834, "Type": "storefront", "Name": "GV Trading (was Sweet Valley)", "Address": "146 Mott St.", "Borough": "Manhattan", "Produce Ty": "longan", "2006": 1, "2007": 1, "2008": 1, "2009": 1, "2010": 1, "2011": 1, "2012": 1, "2013": 1, "2014": 1, "2015": 1, "2016": 1, "2017": 1, "2018": 1, "2019": 1, "2020": 1, "2021": 1, "2022": 1, "2023": 1, "osm_type": "way", "display_na": "146, Mott Street, Chinatown, Manhattan, New York County, New York, 10013, United States", "place_id": "336919612", "class": "place", "type_2": "house", "road": "Mott Street", "village": null, "city_distr": null, "town": null, "city": "New York", "state": "New York", "country": "United States", "postcode": "10013" }, "geometry": { "type": "Point", "coordinates": [ -73.996426, 40.718905 ] } },
{ "type": "Feature", "properties": { "OBJECTID": 39, "Match_addr": "90 Mott St, New York, New York, 10013", "X": -73.99762345000001, "Y": 40.7169199, "Type": "cart", "Name": "Longan", "Address": "90 Mott St.", "Borough": "Manhattan", "Produce Ty": "longan", "2006": 1, "2007": 0, "2008": 0, "2009": 0, "2010": 0, "2011": 0, "2012": 0, "2013": 0, "2014": 0, "2015": 0, "2016": 0, "2017": 0, "2018": 0, "2019": 0, "2020": 0, "2021": 0, "2022": 0, "2023": 0, "osm_type": "way", "display_na": "90, Mott Street, Five Points, Manhattan, New York County, New York, 10013, United States", "place_id": "336924592", "class": "place", "type_2": "house", "road": "Mott Street", "village": null, "city_distr": null, "town": null, "city": "New York", "state": "New York", "country": "United States", "postcode": "10013" }, "geometry": { "type": "Point", "coordinates": [ -73.99783660869565, 40.716500565217395 ] } },
{ "type": "Feature", "properties": { "OBJECTID": 40, "Match_addr": "89 Mott St, New York, New York, 10013", "X": -73.99780571, "Y": 40.71689637, "Type": "cart", "Name": "Abacus", "Address": "89 Mott St.", "Borough": "Manhattan", "Produce Ty": "longan", "2006": 1, "2007": 0, "2008": 0, "2009": 0, "2010": 0, "2011": 0, "2012": 0, "2013": 0, "2014": 0, "2015": 0, "2016": 0, "2017": 0, "2018": 0, "2019": 0, "2020": 0, "2021": 0, "2022": 0, "2023": 0, "osm_type": "way", "display_na": "89, Mott Street, Five Points, Manhattan, New York County, New York, 10013, United States", "place_id": "336924580", "class": "place", "type_2": "house", "road": "Mott Street", "village": null, "city_distr": null, "town": null, "city": "New York", "state": "New York", "country": "United States", "postcode": "10013" }, "geometry": { "type": "Point", "coordinates": [ -73.998064090909082, 40.7165195 ] } },
{ "type": "Feature", "properties": { "OBJECTID": 43, "Match_addr": "178 Canal St, New York, New York, 10013", "X": -73.99761306000001, "Y": 40.71669847, "Type": "cart", "Name": "Chase Cart", "Address": "178 Canal St.", "Borough": "Manhattan", "Produce Ty": "longan", "2006": 1, "2007": 1, "2008": 1, "2009": 1, "2010": 1, "2011": 1, "2012": 1, "2013": 1, "2014": 1, "2015": 1, "2016": 1, "2017": 1, "2018": 1, "2019": 1, "2020": 1, "2021": 1, "2022": 1, "2023": 1, "osm_type": "way", "display_na": "178, Canal Street, Manhattan Community Board 3, Manhattan, New York County, New York, 10013, United States", "place_id": "336919613", "class": "place", "type_2": "house", "road": "Canal Street", "village": null, "city_distr": null, "town": null, "city": "New York", "state": "New York", "country": "United States", "postcode": "10013" }, "geometry": { "type": "Point", "coordinates": [ -73.9973585, 40.71658175 ] } },
{ "type": "Feature", "properties": { "OBJECTID": 44, "Match_addr": "71 Elizabeth St, New York, New York, 10013", "X": -73.99635774, "Y": 40.71767579, "Type": "cart", "Name": "Hoho", "Address": "71 Elizabeth St.", "Borough": "Manhattan", "Produce Ty": "longan", "2006": 1, "2007": 1, "2008": 1, "2009": 1, "2010": 1, "2011": 1, "2012": 1, "2013": 1, "2014": 1, "2015": 1, "2016": 1, "2017": 1, "2018": 1, "2019": 1, "2020": 1, "2021": 1, "2022": 1, "2023": 1, "osm_type": "way", "display_na": "71, Elizabeth Street, Chinatown, Manhattan, New York County, New York, 10013, United States", "place_id": "336918294", "class": "place", "type_2": "house", "road": "Elizabeth Street", "village": null, "city_distr": null, "town": null, "city": "New York", "state": "New York", "country": "United States", "postcode": "10013" }, "geometry": { "type": "Point", "coordinates": [ -73.996352, 40.717743 ] } },
{ "type": "Feature", "properties": { "OBJECTID": 64, "Match_addr": "252 Canal St, New York, New York, 10013", "X": -74.00063684, "Y": 40.71842771, "Type": "cart", "Name": "HSBC", "Address": "252 Canal St.", "Borough": "Manhattan", "Produce Ty": "longan", "2006": 1, "2007": 0, "2008": 0, "2009": 0, "2010": 0, "2011": 0, "2012": 0, "2013": 0, "2014": 0, "2015": 0, "2016": 0, "2017": 0, "2018": 0, "2019": 0, "2020": 0, "2021": 0, "2022": 0, "2023": 0, "osm_type": "way", "display_na": "252, Canal Street, SoHo, Manhattan, New York County, New York, 10013, United States", "place_id": "336919007", "class": "place", "type_2": "house", "road": "Canal Street", "village": null, "city_distr": null, "town": null, "city": "New York", "state": "New York", "country": "United States", "postcode": "10013" }, "geometry": { "type": "Point", "coordinates": [ -74.000586520833323, 40.718582520833337 ] } },
{ "type": "Feature", "properties": { "OBJECTID": 65, "Match_addr": "226 Canal St, New York, New York, 10013", "X": -73.99960268, "Y": 40.71756478, "Type": "cart", "Name": "Longan", "Address": "226 Canal St.", "Borough": "Manhattan", "Produce Ty": "longan", "2006": 1, "2007": 1, "2008": 1, "2009": 1, "2010": 1, "2011": 1, "2012": 0, "2013": 0, "2014": 0, "2015": 0, "2016": 0, "2017": 0, "2018": 0, "2019": 0, "2020": 0, "2021": 0, "2022": 0, "2023": 0, "osm_type": "node", "display_na": "226, Canal Street, Chinatown, Manhattan, New York County, New York, 10013, United States", "place_id": "15324507", "class": "place", "type_2": "house", "road": "Canal Street", "village": null, "city_distr": null, "town": null, "city": "New York", "state": "New York", "country": "United States", "postcode": "10013" }, "geometry": { "type": "Point", "coordinates": [ -73.9996012, 40.7175565 ] } },
{ "type": "Feature", "properties": { "OBJECTID": 67, "Match_addr": "214 Canal St, New York, New York, 10013", "X": -73.99912491000001, "Y": 40.71713994, "Type": "cart", "Name": "M+F Fish", "Address": "214 Canal St.", "Borough": "Manhattan", "Produce Ty": "longan", "2006": 1, "2007": 1, "2008": 1, "2009": 1, "2010": 1, "2011": 1, "2012": 1, "2013": 1, "2014": 1, "2015": 1, "2016": 1, "2017": 1, "2018": 1, "2019": 1, "2020": 1, "2021": 1, "2022": 1, "2023": 1, "osm_type": "node", "display_na": "Hung Kee Fish & Meat Market, 214, Canal Street, Manhattan Community Board 3, Manhattan, New York County, New York, 10013, United States", "place_id": "15348049", "class": "shop", "type_2": "butcher", "road": "Canal Street", "village": null, "city_distr": null, "town": null, "city": "New York", "state": "New York", "country": "United States", "postcode": "10013" }, "geometry": { "type": "Point", "coordinates": [ -73.9991231, 40.7171074 ] } }
]
}
