{
"type": "FeatureCollection",
"name": "Vendor Fruits + Vegetables",
"crs": { "type": "name", "properties": { "name": "urn:ogc:def:crs:OGC:1.3:CRS84" } },
"features": [
{ "type": "Feature", "properties": { "OBJECTID": 2, "Match_addr": "254 Grand St, New York, New York, 10002", "X": -73.99367666000001, "Y": 40.71815493, "Type": "storefront", "Name": "Subway", "Address": "254 Grand St.", "Borough": "Manhattan", "Produce Ty": "B", "2006": 1, "2007": 1, "2008": 1, "2009": 1, "2010": 1, "2011": 1, "2012": 1, "2013": 1, "2014": 1, "2015": 1, "2016": 1, "2017": 1, "2018": 1, "2019": 1, "2020": 1, "2021": 0, "2022": 0, "2023": 0, "osm_type": "way", "display_na": "254, Grand Street, Manhattan Community Board 3, Manhattan, New York County, New York, 10002, United States", "place_id": "336923524", "class": "place", "type_2": "house", "road": "Grand Street", "village": null, "city_distr": null, "town": null, "city": "New York", "state": "New York", "country": "United States", "postcode": "10002" }, "geometry": { "type": "Point", "coordinates": [ -73.99402666666667, 40.7182978 ] } },
{ "type": "Feature", "properties": { "OBJECTID": 3, "Match_addr": "255 Grand St, New York, New York, 10002", "X": -73.99378812, "Y": 40.71806543, "Type": "storefront", "Name": "Tan My My Market Inc.", "Address": "255 Grand St.", "Borough": "Manhattan", "Produce Ty": "B", "2006": 1, "2007": 1, "2008": 1, "2009": 1, "2010": 1, "2011": 1, "2012": 1, "2013": 1, "2014": 1, "2015": 1, "2016": 1, "2017": 1, "2018": 1, "2019": 1, "2020": 1, "2021": 1, "2022": 0, "2023": 0, "osm_type": "way", "display_na": "255, Grand Street, Manhattan Community Board 3, Manhattan, New York County, New York, 10002, United States", "place_id": "336923514", "class": "place", "type_2": "house", "road": "Grand Street", "village": null, "city_distr": null, "town": null, "city": "New York", "state": "New York", "country": "United States", "postcode": "10002" }, "geometry": { "type": "Point", "coordinates": [ -73.99419, 40.718171 ] } },
{ "type": "Feature", "properties": { "OBJECTID": 7, "Match_addr": "242 Grand St, New York, New York, 10002", "X": -73.99431898, "Y": 40.71841663, "Type": "store", "Name": "Grand Star Lotto", "Address": "242 Grand St", "Borough": "Manhattan", "Produce Ty": "B", "2006": 1, "2007": 1, "2008": 1, "2009": 0, "2010": 0, "2011": 0, "2012": 0, "2013": 0, "2014": 0, "2015": 0, "2016": 0, "2017": 0, "2018": 0, "2019": 0, "2020": 0, "2021": 0, "2022": 0, "2023": 0, "osm_type": "node", "display_na": "Burger By Day, 242, Grand Street, Manhattan Community Board 3, Manhattan, New York County, New York, 10002, United States", "place_id": "15289529", "class": "amenity", "type_2": "fast_food", "road": "Grand Street", "village": null, "city_distr": null, "town": null, "city": "New York", "state": "New York", "country": "United States", "postcode": "10002" }, "geometry": { "type": "Point", "coordinates": [ -73.9943311, 40.7184239 ] } },
{ "type": "Feature", "properties": { "OBJECTID": 11, "Match_addr": "221 Grand St, New York, New York, 10013", "X": -73.99584583, "Y": 40.71870841, "Type": "storefront", "Name": "Wing Fat", "Address": "221 Grand St.", "Borough": "Manhattan", "Produce Ty": "B", "2006": 1, "2007": 1, "2008": 1, "2009": 1, "2010": 1, "2011": 0, "2012": 0, "2013": 0, "2014": 0, "2015": 0, "2016": 0, "2017": 0, "2018": 0, "2019": 0, "2020": 0, "2021": 0, "2022": 0, "2023": 0, "osm_type": "way", "display_na": "221, Grand Street, Little Italy, Manhattan, New York County, New York, 10013, United States", "place_id": "336918325", "class": "place", "type_2": "house", "road": "Grand Street", "village": null, "city_distr": null, "town": null, "city": "New York", "state": "New York", "country": "United States", "postcode": "10013" }, "geometry": { "type": "Point", "coordinates": [ -73.995892, 40.718754 ] } },
{ "type": "Feature", "properties": { "OBJECTID": 13, "Match_addr": "206 Grand St, New York, New York, 10013", "X": -73.99632293000001, "Y": 40.71911698, "Type": "storefront", "Name": "Yue Fung", "Address": "206 Grand St.", "Borough": "Manhattan", "Produce Ty": "B", "2006": 1, "2007": 1, "2008": 1, "2009": 0, "2010": 0, "2011": 0, "2012": 0, "2013": 0, "2014": 0, "2015": 0, "2016": 0, "2017": 0, "2018": 0, "2019": 0, "2020": 0, "2021": 0, "2022": 0, "2023": 0, "osm_type": "node", "display_na": "Yaya Tea Garden, 206, Grand Street, Little Italy, Manhattan, New York County, New York, 10013, United States", "place_id": "15439159", "class": "amenity", "type_2": "cafe", "road": "Grand Street", "village": null, "city_distr": null, "town": null, "city": "New York", "state": "New York", "country": "United States", "postcode": "10013" }, "geometry": { "type": "Point", "coordinates": [ -73.9963326, 40.7191116 ] } },
{ "type": "Feature", "properties": { "OBJECTID": 14, "Match_addr": "207 Grand St, New York, New York, 10013", "X": -73.99632234000001, "Y": 40.71889373, "Type": "storefront", "Name": "Sweet Valley Fruit and Vegetable", "Address": "207 Grand St.", "Borough": "Manhattan", "Produce Ty": "B", "2006": 1, "2007": 1, "2008": 1, "2009": 1, "2010": 1, "2011": 1, "2012": 1, "2013": 1, "2014": 1, "2015": 1, "2016": 1, "2017": 1, "2018": 1, "2019": 1, "2020": 1, "2021": 1, "2022": 1, "2023": 1, "osm_type": "way", "display_na": "207, Grand Street, Little Italy, Manhattan, New York County, New York, 10013, United States", "place_id": "15414154", "class": "building", "type_2": "yes", "road": "Grand Street", "village": null, "city_distr": null, "town": null, "city": "New York", "state": "New York", "country": "United States", "postcode": "10013" }, "geometry": { "type": "Point", "coordinates": [ -73.996350444920012, 40.7188148 ] } },
{ "type": "Feature", "properties": { "OBJECTID": 17, "Match_addr": "144 Mott St, New York, New York, 10013", "X": -73.99646032, "Y": 40.71890436, "Type": "table", "Name": "GV Trading (S end)", "Address": "144 Mott St.", "Borough": "Manhattan", "Produce Ty": "B", "2006": 1, "2007": 1, "2008": 1, "2009": 1, "2010": 1, "2011": 1, "2012": 1, "2013": 1, "2014": 1, "2015": 1, "2016": 1, "2017": 1, "2018": 1, "2019": 1, "2020": 1, "2021": 1, "2022": 1, "2023": 1, "osm_type": "way", "display_na": "144, Mott Street, Chinatown, Manhattan, New York County, New York, 10013, United States", "place_id": "336919612", "class": "place", "type_2": "house", "road": "Mott Street", "village": null, "city_distr": null, "town": null, "city": "New York", "state": "New York", "country": "United States", "postcode": "10013" }, "geometry": { "type": "Point", "coordinates": [ -73.996454033078848, 40.718837831632861 ] } },
{ "type": "Feature", "properties": { "OBJECTID": 18, "Match_addr": "142 Mott St, New York, New York, 10013", "X": -73.99649051, "Y": 40.71883038, "Type": "table", "Name": "temp 1", "Address": "142 Mott St.", "Borough": "Manhattan", "Produce Ty": "B", "2006": 1, "2007": 1, "2008": 1, "2009": 1, "2010": 1, "2011": 1, "2012": 1, "2013": 1, "2014": 1, "2015": 1, "2016": 1, "2017": 1, "2018": 1, "2019": 1, "2020": 1, "2021": 1, "2022": 1, "2023": 1, "osm_type": "way", "display_na": "142, Mott Street, Chinatown, Manhattan, New York County, New York, 10013, United States", "place_id": "336919612", "class": "place", "type_2": "house", "road": "Mott Street", "village": null, "city_distr": null, "town": null, "city": "New York", "state": "New York", "country": "United States", "postcode": "10013" }, "geometry": { "type": "Point", "coordinates": [ -73.996482066157697, 40.71877066326573 ] } },
{ "type": "Feature", "properties": { "OBJECTID": 19, "Match_addr": "140 Mott St, New York, New York, 10013", "X": -73.99650724, "Y": 40.71876603, "Type": "table", "Name": "temp 2", "Address": "140 Mott St.", "Borough": "Manhattan", "Produce Ty": "B", "2006": 1, "2007": 1, "2008": 1, "2009": 1, "2010": 1, "2011": 1, "2012": 1, "2013": 1, "2014": 1, "2015": 1, "2016": 1, "2017": 1, "2018": 1, "2019": 1, "2020": 1, "2021": 1, "2022": 1, "2023": 1, "osm_type": "node", "display_na": "JC Fruit & Vegetable, 140, Mott Street, Chinatown, Manhattan, New York County, New York, 10013, United States", "place_id": "15425828", "class": "shop", "type_2": "greengrocer", "road": "Mott Street", "village": null, "city_distr": null, "town": null, "city": "New York", "state": "New York", "country": "United States", "postcode": "10013" }, "geometry": { "type": "Point", "coordinates": [ -73.9964898, 40.7187483 ] } },
{ "type": "Feature", "properties": { "OBJECTID": 23, "Match_addr": "132 Mott St, New York, New York, 10013", "X": -73.99665597000001, "Y": 40.7184579, "Type": "cart", "Name": "temp 6", "Address": "132 Mott St.", "Borough": "Manhattan", "Produce Ty": "B", "2006": 1, "2007": 1, "2008": 1, "2009": 1, "2010": 1, "2011": 0, "2012": 0, "2013": 0, "2014": 0, "2015": 0, "2016": 0, "2017": 0, "2018": 0, "2019": 0, "2020": 0, "2021": 0, "2022": 0, "2023": 0, "osm_type": "way", "display_na": "132, Mott Street, Chinatown, Manhattan, New York County, New York, 10013, United States", "place_id": "336919612", "class": "place", "type_2": "house", "road": "Mott Street", "village": null, "city_distr": null, "town": null, "city": "New York", "state": "New York", "country": "United States", "postcode": "10013" }, "geometry": { "type": "Point", "coordinates": [ -73.996639472174294, 40.718442807996801 ] } },
{ "type": "Feature", "properties": { "OBJECTID": 25, "Match_addr": "147 Mott St, New York, New York, 10013", "X": -73.99668066, "Y": 40.71885723, "Type": "cart", "Name": "temp 9", "Address": "147 Mott St.", "Borough": "Manhattan", "Produce Ty": "B", "2006": 1, "2007": 1, "2008": 1, "2009": 1, "2010": 1, "2011": 1, "2012": 1, "2013": 1, "2014": 1, "2015": 1, "2016": 1, "2017": 1, "2018": 1, "2019": 1, "2020": 1, "2021": 1, "2022": 1, "2023": 1, "osm_type": "node", "display_na": "Haven Cafe, 147, Mott Street, Little Italy, Manhattan, New York County, New York, 10013, United States", "place_id": "15366671", "class": "amenity", "type_2": "cafe", "road": "Mott Street", "village": null, "city_distr": null, "town": null, "city": "New York", "state": "New York", "country": "United States", "postcode": "10013" }, "geometry": { "type": "Point", "coordinates": [ -73.9966792, 40.718849 ] } },
{ "type": "Feature", "properties": { "OBJECTID": 28, "Match_addr": "141 Mott St, New York, New York, 10013", "X": -73.99675191, "Y": 40.71869508, "Type": "store", "Name": "New Au Jang Market", "Address": "141 Mott St.", "Borough": "Manhattan", "Produce Ty": "B", "2006": 1, "2007": 1, "2008": 1, "2009": 1, "2010": 1, "2011": 1, "2012": 1, "2013": 1, "2014": 1, "2015": 1, "2016": 1, "2017": 1, "2018": 1, "2019": 1, "2020": 1, "2021": 1, "2022": 1, "2023": 1, "osm_type": "way", "display_na": "141, Mott Street, Little Italy, Manhattan, New York County, New York, 10013, United States", "place_id": "15368861", "class": "building", "type_2": "yes", "road": "Mott Street", "village": null, "city_distr": null, "town": null, "city": "New York", "state": "New York", "country": "United States", "postcode": "10013" }, "geometry": { "type": "Point", "coordinates": [ -73.996825482243409, 40.71871045 ] } },
{ "type": "Feature", "properties": { "OBJECTID": 29, "Match_addr": "128 Mott St, New York, New York, 10013", "X": -73.99666055, "Y": 40.71843071, "Type": "table", "Name": "Tai Chong Meat Market", "Address": "128 Mott St.", "Borough": "Manhattan", "Produce Ty": "B", "2006": 1, "2007": 1, "2008": 1, "2009": 1, "2010": 1, "2011": 0, "2012": 0, "2013": 0, "2014": 0, "2015": 0, "2016": 0, "2017": 0, "2018": 0, "2019": 0, "2020": 0, "2021": 0, "2022": 0, "2023": 0, "osm_type": "node", "display_na": "iFresh Market, 128, Mott Street, Chinatown, Manhattan, New York County, New York, 10013, United States", "place_id": "15149746", "class": "shop", "type_2": "supermarket", "road": "Mott Street", "village": null, "city_distr": null, "town": null, "city": "New York", "state": "New York", "country": "United States", "postcode": "10013" }, "geometry": { "type": "Point", "coordinates": [ -73.9966034, 40.7184953 ] } },
{ "type": "Feature", "properties": { "OBJECTID": 30, "Match_addr": "139 Mott St, New York, New York, 10013", "X": -73.99678929, "Y": 40.71863314, "Type": "store", "Name": "Shing Hing Trading Co.", "Address": "139 Mott St.", "Borough": "Manhattan", "Produce Ty": "B", "2006": 1, "2007": 1, "2008": 1, "2009": 1, "2010": 1, "2011": 1, "2012": 1, "2013": 1, "2014": 1, "2015": 1, "2016": 1, "2017": 1, "2018": 1, "2019": 1, "2020": 0, "2021": 0, "2022": 0, "2023": 0, "osm_type": "way", "display_na": "139, Mott Street, Little Italy, Manhattan, New York County, New York, 10013, United States", "place_id": "15193738", "class": "building", "type_2": "yes", "road": "Mott Street", "village": null, "city_distr": null, "town": null, "city": "New York", "state": "New York", "country": "United States", "postcode": "10013" }, "geometry": { "type": "Point", "coordinates": [ -73.996931369841121, 40.7186733 ] } },
{ "type": "Feature", "properties": { "OBJECTID": 41, "Match_addr": "185 Canal St, New York, New York, 10013", "X": -73.99784852000001, "Y": 40.71701631, "Type": "cart", "Name": "Vita Soy", "Address": "185 Canal St.", "Borough": "Manhattan", "Produce Ty": "B", "2006": 1, "2007": 0, "2008": 0, "2009": 0, "2010": 0, "2011": 0, "2012": 0, "2013": 0, "2014": 0, "2015": 0, "2016": 0, "2017": 0, "2018": 0, "2019": 0, "2020": 0, "2021": 0, "2022": 0, "2023": 0, "osm_type": "node", "display_na": "United Orient Bank, 185, Canal Street, Little Italy, Manhattan, New York County, New York, 10013, United States", "place_id": "15130785", "class": "amenity", "type_2": "bank", "road": "Canal Street", "village": null, "city_distr": null, "town": null, "city": "New York", "state": "New York", "country": "United States", "postcode": "10013" }, "geometry": { "type": "Point", "coordinates": [ -73.9977371, 40.7170822 ] } },
{ "type": "Feature", "properties": { "OBJECTID": 45, "Match_addr": "94 Mulberry St, New York, New York, 10013", "X": -73.99864479, "Y": 40.71686847, "Type": "cart", "Name": "BEA Pitaya", "Address": "94 Mulberry St.", "Borough": "Manhattan", "Produce Ty": "B", "2006": 1, "2007": 1, "2008": 1, "2009": 1, "2010": 1, "2011": 1, "2012": 1, "2013": 1, "2014": 1, "2015": 1, "2016": 1, "2017": 1, "2018": 1, "2019": 1, "2020": 1, "2021": 1, "2022": 1, "2023": 1, "osm_type": "way", "display_na": "94, Mulberry Street, Manhattan Community Board 3, Manhattan, New York County, New York, 10013, United States", "place_id": "336916233", "class": "place", "type_2": "house", "road": "Mulberry Street", "village": null, "city_distr": null, "town": null, "city": "New York", "state": "New York", "country": "United States", "postcode": "10013" }, "geometry": { "type": "Point", "coordinates": [ -73.99864485714285, 40.716815285714283 ] } },
{ "type": "Feature", "properties": { "OBJECTID": 54, "Match_addr": "73 Mulberry St, New York, New York, 10013", "X": -73.99924787, "Y": 40.71624161, "Type": "storefront", "Name": "Han May", "Address": "73 Mulberry St.", "Borough": "Manhattan", "Produce Ty": "B", "2006": 1, "2007": 1, "2008": 1, "2009": 1, "2010": 1, "2011": 0, "2012": 0, "2013": 0, "2014": 0, "2015": 0, "2016": 0, "2017": 0, "2018": 0, "2019": 0, "2020": 0, "2021": 0, "2022": 0, "2023": 0, "osm_type": "way", "display_na": "73, Mulberry Street, Manhattan Community Board 3, Manhattan, New York County, New York, 10013, United States", "place_id": "15324716", "class": "building", "type_2": "yes", "road": "Mulberry Street", "village": null, "city_distr": null, "town": null, "city": "New York", "state": "New York", "country": "United States", "postcode": "10013" }, "geometry": { "type": "Point", "coordinates": [ -73.999389910986167, 40.7162837 ] } },
{ "type": "Feature", "properties": { "OBJECTID": 55, "Match_addr": "104 Mosco St, New York, New York, 10013", "X": -73.99937821, "Y": 40.71452504, "Type": "store", "Name": "Bangkok Center Grocery", "Address": "104 Mosco St.", "Borough": "Manhattan", "Produce Ty": "B", "2006": 1, "2007": 1, "2008": 1, "2009": 1, "2010": 1, "2011": 1, "2012": 1, "2013": 1, "2014": 1, "2015": 1, "2016": 1, "2017": 1, "2018": 1, "2019": 1, "2020": 1, "2021": 1, "2022": 1, "2023": 1, "osm_type": "node", "display_na": "Bangkok Center Grocery, 104, Mosco Street, Manhattan Community Board 3, Manhattan, New York County, New York, 10013, United States", "place_id": "15297088", "class": "shop", "type_2": "convenience", "road": "Mosco Street", "village": null, "city_distr": null, "town": null, "city": "New York", "state": "New York", "country": "United States", "postcode": "10013" }, "geometry": { "type": "Point", "coordinates": [ -73.9993568, 40.7145178 ] } },
{ "type": "Feature", "properties": { "OBJECTID": 57, "Match_addr": "71 1/2 Mulberry St, New York, New York, 10013", "X": -73.99932598, "Y": 40.71604631, "Type": "store", "Name": "Asia Mart-Thai and Indonesian", "Address": "71 1/2 Mulberry St.", "Borough": "Manhattan", "Produce Ty": "B", "2006": 1, "2007": 1, "2008": 1, "2009": 1, "2010": 1, "2011": 1, "2012": 1, "2013": 1, "2014": 0, "2015": 0, "2016": 0, "2017": 0, "2018": 0, "2019": 0, "2020": 0, "2021": 0, "2022": 0, "2023": 0, "osm_type": "way", "display_na": "71 1/2, Mulberry Street, Manhattan Community Board 3, Manhattan, New York County, New York, 10013, United States", "place_id": "15292309", "class": "building", "type_2": "yes", "road": "Mulberry Street", "village": null, "city_distr": null, "town": null, "city": "New York", "state": "New York", "country": "United States", "postcode": "10013" }, "geometry": { "type": "Point", "coordinates": [ -73.99942414580039, 40.71622305 ] } },
{ "type": "Feature", "properties": { "OBJECTID": 70, "Match_addr": "200 Canal St, New York, New York, 10013", "X": -73.99835218, "Y": 40.71686351, "Type": "cart", "Name": "ATM", "Address": "200 Canal St.", "Borough": "Manhattan", "Produce Ty": "B", "2006": 1, "2007": 1, "2008": 1, "2009": 1, "2010": 1, "2011": 1, "2012": 1, "2013": 1, "2014": 1, "2015": 1, "2016": 1, "2017": 1, "2018": 1, "2019": 1, "2020": 1, "2021": 1, "2022": 1, "2023": 1, "osm_type": "node", "display_na": "200, Canal Street, Chinatown, Manhattan, New York County, New York, 10013, United States", "place_id": "15332697", "class": "place", "type_2": "house", "road": "Canal Street", "village": null, "city_distr": null, "town": null, "city": "New York", "state": "New York", "country": "United States", "postcode": "10013" }, "geometry": { "type": "Point", "coordinates": [ -73.9983507, 40.7168553 ] } },
{ "type": "Feature", "properties": { "OBJECTID": 72, "Match_addr": "196 Canal St, New York, New York, 10013", "X": -73.99822545000001, "Y": 40.71681741, "Type": "cart", "Name": "Bamboo", "Address": "196 Canal St.", "Borough": "Manhattan", "Produce Ty": "B", "2006": 1, "2007": 1, "2008": 1, "2009": 1, "2010": 1, "2011": 1, "2012": 1, "2013": 1, "2014": 1, "2015": 1, "2016": 1, "2017": 1, "2018": 1, "2019": 1, "2020": 1, "2021": 1, "2022": 1, "2023": 1, "osm_type": "node", "display_na": "Canal Pharmacy, 196, Canal Street, Chinatown, Manhattan, New York County, New York, 10013, United States", "place_id": "15330488", "class": "amenity", "type_2": "pharmacy", "road": "Canal Street", "village": null, "city_distr": null, "town": null, "city": "New York", "state": "New York", "country": "United States", "postcode": "10013" }, "geometry": { "type": "Point", "coordinates": [ -73.9982539, 40.7168191 ] } },
{ "type": "Feature", "properties": { "OBJECTID": 76, "Match_addr": "17 E Broadway, New York, New York, 10002", "X": -73.99702944000001, "Y": 40.71338079, "Type": "storefront", "Name": "Number One Long Hing Market Inc. West 1", "Address": "17 East Broadway", "Borough": "Manhattan", "Produce Ty": "B", "2006": 1, "2007": 1, "2008": 1, "2009": 1, "2010": 1, "2011": 1, "2012": 1, "2013": 1, "2014": 1, "2015": 1, "2016": 1, "2017": 1, "2018": 1, "2019": 0, "2020": 0, "2021": 0, "2022": 0, "2023": 0, "osm_type": "node", "display_na": "Sam Wai, 17, East Broadway, Manhattan Community Board 3, Manhattan, New York County, New York, 10002, United States", "place_id": "15296830", "class": "shop", "type_2": "alcohol", "road": "East Broadway", "village": null, "city_distr": null, "town": null, "city": "New York", "state": "New York", "country": "United States", "postcode": "10002" }, "geometry": { "type": "Point", "coordinates": [ -73.9970226, 40.7133616 ] } },
{ "type": "Feature", "properties": { "OBJECTID": 77, "Match_addr": "38 E Broadway, New York, New York, 10002", "X": -73.99620809, "Y": 40.71367717, "Type": "storefront", "Name": "Sun Tung Wui Market Inc.", "Address": "38 East Broadway", "Borough": "Manhattan", "Produce Ty": "B", "2006": 1, "2007": 1, "2008": 1, "2009": 1, "2010": 0, "2011": 0, "2012": 0, "2013": 0, "2014": 0, "2015": 0, "2016": 0, "2017": 0, "2018": 0, "2019": 0, "2020": 0, "2021": 0, "2022": 0, "2023": 0, "osm_type": "way", "display_na": "38, East Broadway, Manhattan Community Board 3, Manhattan, New York County, New York, 10002, United States", "place_id": "15291548", "class": "building", "type_2": "yes", "road": "East Broadway", "village": null, "city_distr": null, "town": null, "city": "New York", "state": "New York", "country": "United States", "postcode": "10002" }, "geometry": { "type": "Point", "coordinates": [ -73.9962182, 40.71373845 ] } },
{ "type": "Feature", "properties": { "OBJECTID": 78, "Match_addr": "51 E Broadway, New York, New York, 10002", "X": -73.99564315000001, "Y": 40.71349352, "Type": "storefront", "Name": "New Lung Hing Market", "Address": "51 East Broadway", "Borough": "Manhattan", "Produce Ty": "B", "2006": 1, "2007": 1, "2008": 1, "2009": 1, "2010": 1, "2011": 1, "2012": 1, "2013": 1, "2014": 1, "2015": 1, "2016": 1, "2017": 1, "2018": 1, "2019": 1, "2020": 1, "2021": 1, "2022": 1, "2023": 1, "osm_type": "way", "display_na": "51, East Broadway, Manhattan Community Board 3, Manhattan, New York County, New York, 10002, United States", "place_id": "15277317", "class": "building", "type_2": "yes", "road": "East Broadway", "village": null, "city_distr": null, "town": null, "city": "New York", "state": "New York", "country": "United States", "postcode": "10002" }, "geometry": { "type": "Point", "coordinates": [ -73.99563446730204, 40.71343395 ] } },
{ "type": "Feature", "properties": { "OBJECTID": 79, "Match_addr": "107 E Broadway, New York, New York, 10002", "X": -73.99301476, "Y": 40.71370391, "Type": "storefront", "Name": "Hu Xin Vegetable and Grocery", "Address": "107 East Broadway", "Borough": "Manhattan", "Produce Ty": "B", "2006": 1, "2007": 0, "2008": 0, "2009": 0, "2010": 0, "2011": 0, "2012": 0, "2013": 0, "2014": 0, "2015": 0, "2016": 0, "2017": 0, "2018": 0, "2019": 0, "2020": 0, "2021": 0, "2022": 0, "2023": 0, "osm_type": "node", "display_na": "Lanzhou Ramen, 107, East Broadway, Manhattan Community Board 3, Manhattan, New York County, New York, 10002, United States", "place_id": "15319127", "class": "amenity", "type_2": "restaurant", "road": "East Broadway", "village": null, "city_distr": null, "town": null, "city": "New York", "state": "New York", "country": "United States", "postcode": "10002" }, "geometry": { "type": "Point", "coordinates": [ -73.9930117, 40.7136866 ] } },
{ "type": "Feature", "properties": { "OBJECTID": 81, "Match_addr": "291 Grand St, New York, New York, 10002", "X": -73.99213382000001, "Y": 40.71752865, "Type": "storefront", "Name": "HK Man Polo", "Address": "291 Grand St", "Borough": "Manhattan", "Produce Ty": "B", "2006": 1, "2007": 1, "2008": 1, "2009": 1, "2010": 1, "2011": 1, "2012": 1, "2013": 0, "2014": 0, "2015": 0, "2016": 0, "2017": 0, "2018": 0, "2019": 0, "2020": 0, "2021": 0, "2022": 0, "2023": 0, "osm_type": "node", "display_na": "291, Grand Street, Manhattan Community Board 3, Manhattan, New York County, New York, 10002, United States", "place_id": "15353927", "class": "place", "type_2": "house", "road": "Grand Street", "village": null, "city_distr": null, "town": null, "city": "New York", "state": "New York", "country": "United States", "postcode": "10002" }, "geometry": { "type": "Point", "coordinates": [ -73.9921324, 40.7175204 ] } },
{ "type": "Feature", "properties": { "OBJECTID": 82, "Match_addr": "109 E Broadway, New York, New York, 10002", "X": -73.99293697, "Y": 40.71371258, "Type": "store", "Name": "Hong Kong Supermarket", "Address": "109 East Broadway", "Borough": "Manhattan", "Produce Ty": "B", "2006": 1, "2007": 0, "2008": 0, "2009": 0, "2010": 0, "2011": 0, "2012": 0, "2013": 0, "2014": 0, "2015": 0, "2016": 0, "2017": 0, "2018": 0, "2019": 0, "2020": 0, "2021": 0, "2022": 0, "2023": 0, "osm_type": "node", "display_na": "Chinatown Supermarket of Manhattan, 109, East Broadway, Manhattan Community Board 3, Manhattan, New York County, New York, 10002, United States", "place_id": "15232570", "class": "shop", "type_2": "supermarket", "road": "East Broadway", "village": null, "city_distr": null, "town": null, "city": "New York", "state": "New York", "country": "United States", "postcode": "10002" }, "geometry": { "type": "Point", "coordinates": [ -73.9928838, 40.713697 ] } },
{ "type": "Feature", "properties": { "OBJECTID": 83, "Match_addr": "272 Grand St, New York, New York, 10002", "X": -73.99288316000001, "Y": 40.7179832, "Type": "storefront", "Name": "Evergrand Trading Inc.", "Address": "272 Grand St.", "Borough": "Manhattan", "Produce Ty": "B", "2006": 1, "2007": 1, "2008": 1, "2009": 1, "2010": 1, "2011": 1, "2012": 1, "2013": 1, "2014": 1, "2015": 1, "2016": 1, "2017": 1, "2018": 1, "2019": 1, "2020": 1, "2021": 1, "2022": 0, "2023": 0, "osm_type": "node", "display_na": "272, Grand Street, Manhattan Community Board 3, Manhattan, New York County, New York, 10002, United States", "place_id": "15353064", "class": "place", "type_2": "house", "road": "Grand Street", "village": null, "city_distr": null, "town": null, "city": "New York", "state": "New York", "country": "United States", "postcode": "10002" }, "geometry": { "type": "Point", "coordinates": [ -73.9928817, 40.7179749 ] } },
{ "type": "Feature", "properties": { "OBJECTID": 84, "Match_addr": "288 Grand St, New York, New York, 10002", "X": -73.99230037, "Y": 40.7178071, "Type": "storefront", "Name": "AA Meat Market Inc.", "Address": "288 Grand St.", "Borough": "Manhattan", "Produce Ty": "B", "2006": 1, "2007": 1, "2008": 1, "2009": 1, "2010": 1, "2011": 1, "2012": 1, "2013": 1, "2014": 1, "2015": 1, "2016": 1, "2017": 1, "2018": 1, "2019": 1, "2020": 1, "2021": 1, "2022": 1, "2023": 1, "osm_type": "node", "display_na": "Ben Meat Market, 288, Grand Street, Manhattan Community Board 3, Manhattan, New York County, New York, 10002, United States", "place_id": "383083436", "class": "shop", "type_2": "butcher", "road": "Grand Street", "village": null, "city_distr": null, "town": null, "city": "New York", "state": "New York", "country": "United States", "postcode": "10002" }, "geometry": { "type": "Point", "coordinates": [ -73.9922941, 40.7178018 ] } },
{ "type": "Feature", "properties": { "OBJECTID": 85, "Match_addr": "162 Grand St, New York, New York, 10013", "X": -73.99856528, "Y": 40.71984875, "Type": "storefront", "Name": "Tai Fortune Food Market Corp", "Address": "162 Grand St.", "Borough": "Manhattan", "Produce Ty": "B", "2006": 1, "2007": 1, "2008": 0, "2009": 0, "2010": 0, "2011": 0, "2012": 0, "2013": 0, "2014": 0, "2015": 0, "2016": 0, "2017": 0, "2018": 0, "2019": 0, "2020": 0, "2021": 0, "2022": 0, "2023": 0, "osm_type": "way", "display_na": "162, Grand Street, Little Italy, Manhattan, New York County, New York, 10013, United States", "place_id": "336923353", "class": "place", "type_2": "house", "road": "Grand Street", "village": null, "city_distr": null, "town": null, "city": "New York", "state": "New York", "country": "United States", "postcode": "10013" }, "geometry": { "type": "Point", "coordinates": [ -73.998646833333339, 40.719942166666669 ] } },
{ "type": "Feature", "properties": { "OBJECTID": 86, "Match_addr": "250 Grand St, New York, New York, 10002", "X": -73.99397708, "Y": 40.71831119, "Type": "storefront", "Name": "G.S. Food Market Corp.", "Address": "250 Grand St.", "Borough": "Manhattan", "Produce Ty": "B", "2006": 1, "2007": 1, "2008": 1, "2009": 1, "2010": 1, "2011": 1, "2012": 1, "2013": 1, "2014": 1, "2015": 1, "2016": 1, "2017": 1, "2018": 1, "2019": 1, "2020": 0, "2021": 0, "2022": 0, "2023": 0, "osm_type": "way", "display_na": "250, Grand Street, Manhattan Community Board 3, Manhattan, New York County, New York, 10002, United States", "place_id": "15303163", "class": "building", "type_2": "yes", "road": "Grand Street", "village": null, "city_distr": null, "town": null, "city": "New York", "state": "New York", "country": "United States", "postcode": "10002" }, "geometry": { "type": "Point", "coordinates": [ -73.9939581, 40.71833675 ] } },
{ "type": "Feature", "properties": { "OBJECTID": 88, "Match_addr": "78 Elizabeth St, New York, New York, 10013", "X": -73.99596849, "Y": 40.71805024, "Type": "supermarket", "Name": "Dynasty Supermarket", "Address": "78 Elizabeth St.", "Borough": "Manhattan", "Produce Ty": "B", "2006": 1, "2007": 0, "2008": 0, "2009": 0, "2010": 0, "2011": 0, "2012": 0, "2013": 0, "2014": 0, "2015": 0, "2016": 0, "2017": 0, "2018": 0, "2019": 0, "2020": 0, "2021": 0, "2022": 0, "2023": 0, "osm_type": "way", "display_na": "78, Elizabeth Street, Chinatown, Manhattan, New York County, New York, 10013, United States", "place_id": "336918285", "class": "place", "type_2": "house", "road": "Elizabeth Street", "village": null, "city_distr": null, "town": null, "city": "New York", "state": "New York", "country": "United States", "postcode": "10013" }, "geometry": { "type": "Point", "coordinates": [ -73.995942665450798, 40.718019815512456 ] } },
{ "type": "Feature", "properties": { "OBJECTID": 94, "Match_addr": "169 Hester St, New York, New York, 10013", "X": -73.99671931, "Y": 40.71782764, "Type": "Store", "Name": "Yue Feng USA", "Address": "169 Hester St", "Borough": "Manhattan", "Produce Ty": "B", "2006": 0, "2007": 0, "2008": 0, "2009": 0, "2010": 0, "2011": 0, "2012": 0, "2013": 1, "2014": 1, "2015": 1, "2016": 1, "2017": 1, "2018": 1, "2019": 1, "2020": 1, "2021": 1, "2022": 1, "2023": 1, "osm_type": "way", "display_na": "169, Hester Street, Chinatown, Manhattan, New York County, New York, 10013, United States", "place_id": "15275790", "class": "building", "type_2": "yes", "road": "Hester Street", "village": null, "city_distr": null, "town": null, "city": "New York", "state": "New York", "country": "United States", "postcode": "10013" }, "geometry": { "type": "Point", "coordinates": [ -73.996687641904742, 40.717862 ] } },
{ "type": "Feature", "properties": { "OBJECTID": 95, "Match_addr": "146 Hester St, New York, New York, 10013", "X": -73.99618689, "Y": 40.71746784, "Type": "table", "Name": "Zhong Liang", "Address": "146 Hester St", "Borough": "Manhattan", "Produce Ty": "B", "2006": 0, "2007": 0, "2008": 0, "2009": 1, "2010": 1, "2011": 1, "2012": 1, "2013": 1, "2014": 1, "2015": 1, "2016": 1, "2017": 1, "2018": 1, "2019": 1, "2020": 1, "2021": 1, "2022": 1, "2023": 1, "osm_type": "node", "display_na": "Ho Won Bake, 146, Hester Street, Chinatown, Manhattan, New York County, New York, 10013, United States", "place_id": "15353351", "class": "shop", "type_2": "bakery", "road": "Hester Street", "village": null, "city_distr": null, "town": null, "city": "New York", "state": "New York", "country": "United States", "postcode": "10013" }, "geometry": { "type": "Point", "coordinates": [ -73.9962653, 40.7174722 ] } },
{ "type": "Feature", "properties": { "OBJECTID": 96, "Match_addr": "140 Hester St, New York, New York, 10013", "X": -73.995804, "Y": 40.71733038, "Type": "table", "Name": "Bank of America", "Address": "140 Hester St", "Borough": "Manhattan", "Produce Ty": "B", "2006": 0, "2007": 0, "2008": 0, "2009": 0, "2010": 0, "2011": 1, "2012": 1, "2013": 1, "2014": 1, "2015": 1, "2016": 1, "2017": 1, "2018": 1, "2019": 1, "2020": 1, "2021": 1, "2022": 1, "2023": 1, "osm_type": "node", "display_na": "140, Hester Street, Chinatown, Manhattan, New York County, New York, 10013, United States", "place_id": "15282849", "class": "place", "type_2": "house", "road": "Hester Street", "village": null, "city_distr": null, "town": null, "city": "New York", "state": "New York", "country": "United States", "postcode": "10013" }, "geometry": { "type": "Point", "coordinates": [ -73.9959227, 40.7173601 ] } },
{ "type": "Feature", "properties": { "OBJECTID": 97, "Match_addr": "166 6th Ave, New York, NY 10013", "X": null, "Y": null, "Type": "cart", "Name": "God's Love We Deliver", "Address": "166 6th Ave", "Borough": "Manhattan", "Produce Ty": "B", "2006": null, "2007": null, "2008": null, "2009": null, "2010": null, "2011": null, "2012": null, "2013": null, "2014": null, "2015": null, "2016": null, "2017": null, "2018": null, "2019": null, "2020": null, "2021": null, "2022": null, "2023": null, "osm_type": "way", "display_na": "166, 6th Avenue, SoHo, Manhattan, New York County, New York, 10013, United States", "place_id": "336916500", "class": "place", "type_2": "house", "road": "6th Avenue", "village": null, "city_distr": null, "town": null, "city": "New York", "state": "New York", "country": "United States", "postcode": "10013" }, "geometry": { "type": "Point", "coordinates": [ -74.00399110810811, 40.725331432432434 ] } },
{ "type": "Feature", "properties": { "OBJECTID": 99, "Match_addr": "227 Bowery, New York, NY 10013", "X": null, "Y": null, "Type": "cart", "Name": "New York City Relief, Bowery Mission Ministries - Soup Kitchen", "Address": "227 Bowery", "Borough": "Manhattan", "Produce Ty": "B", "2006": null, "2007": null, "2008": null, "2009": null, "2010": null, "2011": null, "2012": null, "2013": null, "2014": null, "2015": null, "2016": null, "2017": null, "2018": null, "2019": null, "2020": null, "2021": null, "2022": null, "2023": null, "osm_type": "way", "display_na": "227, Bowery, Manhattan Community Board 3, Manhattan, New York County, New York, 10002, United States", "place_id": "15504341", "class": "building", "type_2": "yes", "road": "Bowery", "village": null, "city_distr": null, "town": null, "city": "New York", "state": "New York", "country": "United States", "postcode": "10002" }, "geometry": { "type": "Point", "coordinates": [ -73.992800718618469, 40.72196585 ] } },
{ "type": "Feature", "properties": { "OBJECTID": 103, "Match_addr": "111 Worth St, New York, NY 10013", "X": null, "Y": null, "Type": "storefront", "Name": "Civic Deli", "Address": "111 Worth St.", "Borough": "Manhattan", "Produce Ty": "B", "2006": null, "2007": null, "2008": null, "2009": null, "2010": null, "2011": null, "2012": null, "2013": null, "2014": null, "2015": null, "2016": null, "2017": null, "2018": null, "2019": null, "2020": null, "2021": null, "2022": null, "2023": null, "osm_type": "node", "display_na": "Starbucks, 111, Worth Street, Lower Manhattan, Civic Center, Manhattan, New York County, New York, 10013, United States", "place_id": "13541235", "class": "amenity", "type_2": "cafe", "road": "Worth Street", "village": null, "city_distr": null, "town": null, "city": "New York", "state": "New York", "country": "United States", "postcode": "10013" }, "geometry": { "type": "Point", "coordinates": [ -74.003128, 40.715754 ] } },
{ "type": "Feature", "properties": { "OBJECTID": 104, "Match_addr": "79 Elizabeth St, New York, NY 10013", "X": null, "Y": null, "Type": "storefront", "Name": "Deluxe Food Market", "Address": "79 Elizabeth St.", "Borough": "Manhattan", "Produce Ty": "B", "2006": null, "2007": null, "2008": null, "2009": null, "2010": null, "2011": null, "2012": null, "2013": null, "2014": null, "2015": null, "2016": null, "2017": null, "2018": null, "2019": null, "2020": null, "2021": null, "2022": null, "2023": null, "osm_type": "way", "display_na": "Deluxe Food Market, 79, Elizabeth Street, Chinatown, Manhattan, New York County, New York, 10013, United States", "place_id": "15325093", "class": "shop", "type_2": "butcher", "road": "Elizabeth Street", "village": null, "city_distr": null, "town": null, "city": "New York", "state": "New York", "country": "United States", "postcode": "10013" }, "geometry": { "type": "Point", "coordinates": [ -73.996543340723107, 40.7180844 ] } },
{ "type": "Feature", "properties": { "OBJECTID": 105, "Match_addr": "459 Broadway, New York, NY 10013", "X": null, "Y": null, "Type": "storefront", "Name": "Duane Reade", "Address": "459 Broadway", "Borough": "Manhattan", "Produce Ty": "B", "2006": null, "2007": null, "2008": null, "2009": null, "2010": null, "2011": null, "2012": null, "2013": null, "2014": null, "2015": null, "2016": null, "2017": null, "2018": null, "2019": null, "2020": null, "2021": null, "2022": null, "2023": null, "osm_type": "node", "display_na": "459, Broadway, SoHo, Manhattan, New York County, New York, 10013, United States", "place_id": "13501431", "class": "place", "type_2": "house", "road": "Broadway", "village": null, "city_distr": null, "town": null, "city": "New York", "state": "New York", "country": "United States", "postcode": "10013" }, "geometry": { "type": "Point", "coordinates": [ -74.0008667, 40.7208102 ] } },
{ "type": "Feature", "properties": { "OBJECTID": 106, "Match_addr": "386 Canal St, New York, NY 10013", "X": null, "Y": null, "Type": "storefront", "Name": "Fresh Food Super Deli", "Address": "386 Canal St.", "Borough": "Manhattan", "Produce Ty": "B", "2006": null, "2007": null, "2008": null, "2009": null, "2010": null, "2011": null, "2012": null, "2013": null, "2014": null, "2015": null, "2016": null, "2017": null, "2018": null, "2019": null, "2020": null, "2021": null, "2022": null, "2023": null, "osm_type": "node", "display_na": "386, Canal Street, Tribeca, Manhattan, New York County, New York, 10013, United States", "place_id": "13547750", "class": "place", "type_2": "house", "road": "Canal Street", "village": null, "city_distr": null, "town": null, "city": "New York", "state": "New York", "country": "United States", "postcode": "10013" }, "geometry": { "type": "Point", "coordinates": [ -74.004968, 40.7213771 ] } },
{ "type": "Feature", "properties": { "OBJECTID": 107, "Match_addr": "489 Broome St, New York, NY 10013", "X": null, "Y": null, "Type": "storefront", "Name": "Gourmet Garage", "Address": "489 Broome St.", "Borough": "Manhattan", "Produce Ty": "B", "2006": null, "2007": null, "2008": null, "2009": null, "2010": null, "2011": null, "2012": null, "2013": null, "2014": null, "2015": null, "2016": null, "2017": null, "2018": null, "2019": null, "2020": null, "2021": null, "2022": null, "2023": null, "osm_type": "way", "display_na": "489, Broome Street, SoHo, Manhattan, New York County, New York, 10013, United States", "place_id": "13495093", "class": "building", "type_2": "yes", "road": "Broome Street", "village": null, "city_distr": null, "town": null, "city": "New York", "state": "New York", "country": "United States", "postcode": "10013" }, "geometry": { "type": "Point", "coordinates": [ -74.002720248565339, 40.72295715 ] } },
{ "type": "Feature", "properties": { "OBJECTID": 108, "Match_addr": "79 Bayard St, New York, NY 10013", "X": null, "Y": null, "Type": "storefront", "Name": "Hung Lee", "Address": "79 Bayard St.", "Borough": "Manhattan", "Produce Ty": "B", "2006": null, "2007": null, "2008": null, "2009": null, "2010": null, "2011": null, "2012": null, "2013": null, "2014": null, "2015": null, "2016": null, "2017": null, "2018": null, "2019": null, "2020": null, "2021": null, "2022": null, "2023": null, "osm_type": "node", "display_na": "79, Bayard Street, Manhattan Community Board 3, Manhattan, New York County, New York, 10013, United States", "place_id": "15234692", "class": "place", "type_2": "house", "road": "Bayard Street", "village": null, "city_distr": null, "town": null, "city": "New York", "state": "New York", "country": "United States", "postcode": "10013" }, "geometry": { "type": "Point", "coordinates": [ -73.9987427, 40.7156332 ] } },
{ "type": "Feature", "properties": { "OBJECTID": 109, "Match_addr": "108 Mulberry St, New York, NY 10013", "X": null, "Y": null, "Type": "storefront", "Name": "La Bella Ferrara", "Address": "108 Mulberry St.", "Borough": "Manhattan", "Produce Ty": "B", "2006": null, "2007": null, "2008": null, "2009": null, "2010": null, "2011": null, "2012": null, "2013": null, "2014": null, "2015": null, "2016": null, "2017": null, "2018": null, "2019": null, "2020": null, "2021": null, "2022": null, "2023": null, "osm_type": "node", "display_na": "La Bella Ferrara Bakery, 108, Mulberry Street, Little Italy, Manhattan, New York County, New York, 10013, United States", "place_id": "15351914", "class": "shop", "type_2": "bakery", "road": "Mulberry Street", "village": null, "city_distr": null, "town": null, "city": "New York", "state": "New York", "country": "United States", "postcode": "10013" }, "geometry": { "type": "Point", "coordinates": [ -73.9982549, 40.7174065 ] } },
{ "type": "Feature", "properties": { "OBJECTID": 110, "Match_addr": "213 Hester St, New York, NY 10013", "X": null, "Y": null, "Type": "supermarket", "Name": "May Wah Vegetarian Market", "Address": "213 Hester St.", "Borough": "Manhattan", "Produce Ty": "B", "2006": null, "2007": null, "2008": null, "2009": null, "2010": null, "2011": null, "2012": null, "2013": null, "2014": null, "2015": null, "2016": null, "2017": null, "2018": null, "2019": null, "2020": null, "2021": null, "2022": null, "2023": null, "osm_type": "node", "display_na": "Lily's Vegan Pantry, 213, Hester Street, Little Italy, Manhattan, New York County, New York, 10013, United States", "place_id": "15191622", "class": "shop", "type_2": "deli", "road": "Hester Street", "village": null, "city_distr": null, "town": null, "city": "New York", "state": "New York", "country": "United States", "postcode": "10013" }, "geometry": { "type": "Point", "coordinates": [ -73.9990498, 40.7186407 ] } },
{ "type": "Feature", "properties": { "OBJECTID": 111, "Match_addr": "208 Centre St, New York, NY 10013", "X": null, "Y": null, "Type": "indoor market", "Name": "Meat Centre 錦昌肉食 (Chinatown)", "Address": "208 Centre St.", "Borough": "Manhattan", "Produce Ty": "B", "2006": null, "2007": null, "2008": null, "2009": null, "2010": null, "2011": null, "2012": null, "2013": null, "2014": null, "2015": null, "2016": null, "2017": null, "2018": null, "2019": null, "2020": null, "2021": null, "2022": null, "2023": null, "osm_type": "way", "display_na": "208, Centre Street, Little Italy, Manhattan, New York County, New York, 10013, United States", "place_id": "15439368", "class": "building", "type_2": "yes", "road": "Centre Street", "village": null, "city_distr": null, "town": null, "city": "New York", "state": "New York", "country": "United States", "postcode": "10013" }, "geometry": { "type": "Point", "coordinates": [ -73.998863703157781, 40.71897825 ] } },
{ "type": "Feature", "properties": { "OBJECTID": 112, "Match_addr": "339 Broadway, New York, NY 10013", "X": null, "Y": null, "Type": "supermarket", "Name": "Mon Cher Market", "Address": "339 Broadway", "Borough": "Manhattan", "Produce Ty": "B", "2006": null, "2007": null, "2008": null, "2009": null, "2010": null, "2011": null, "2012": null, "2013": null, "2014": null, "2015": null, "2016": null, "2017": null, "2018": null, "2019": null, "2020": null, "2021": null, "2022": null, "2023": null, "osm_type": "way", "display_na": "339, Broadway, Tribeca, Manhattan, New York County, New York, 10013, United States", "place_id": "336922775", "class": "place", "type_2": "house", "road": "Broadway", "village": null, "city_distr": null, "town": null, "city": "New York", "state": "New York", "country": "United States", "postcode": "10013" }, "geometry": { "type": "Point", "coordinates": [ -74.004010444444447, 40.717039611111112 ] } },
{ "type": "Feature", "properties": { "OBJECTID": 113, "Match_addr": "13 Hudson St, New York, NY 10013", "X": null, "Y": null, "Type": "supermarket", "Name": "Morgan's Market", "Address": "13 Hudson St.", "Borough": "Manhattan", "Produce Ty": "B", "2006": null, "2007": null, "2008": null, "2009": null, "2010": null, "2011": null, "2012": null, "2013": null, "2014": null, "2015": null, "2016": null, "2017": null, "2018": null, "2019": null, "2020": null, "2021": null, "2022": null, "2023": null, "osm_type": "node", "display_na": "13, Hudson Street, Tribeca, Manhattan, New York County, New York, 10013, United States", "place_id": "13460143", "class": "place", "type_2": "house", "road": "Hudson Street", "village": null, "city_distr": null, "town": null, "city": "New York", "state": "New York", "country": "United States", "postcode": "10013" }, "geometry": { "type": "Point", "coordinates": [ -74.0093372, 40.7163624 ] } },
{ "type": "Feature", "properties": { "OBJECTID": 114, "Match_addr": "49 Elizabeth St Ground Floor, New York, NY 10013", "X": null, "Y": null, "Type": "storefront", "Name": "Po Wing Hong Food Market", "Address": "49 Elizabeth St.", "Borough": "Manhattan", "Produce Ty": "B", "2006": null, "2007": null, "2008": null, "2009": null, "2010": null, "2011": null, "2012": null, "2013": null, "2014": null, "2015": null, "2016": null, "2017": null, "2018": null, "2019": null, "2020": null, "2021": null, "2022": null, "2023": null, "osm_type": null, "display_na": null, "place_id": null, "class": null, "type_2": null, "road": null, "village": null, "city_distr": null, "town": null, "city": null, "state": null, "country": null, "postcode": null }, "geometry": null },
{ "type": "Feature", "properties": { "OBJECTID": 115, "Match_addr": "322 Spring St, New York, NY 10013", "X": null, "Y": null, "Type": "storefront", "Name": "Spring Street Finest Deli", "Address": "322 Spring St.", "Borough": "Manhattan", "Produce Ty": "B", "2006": null, "2007": null, "2008": null, "2009": null, "2010": null, "2011": null, "2012": null, "2013": null, "2014": null, "2015": null, "2016": null, "2017": null, "2018": null, "2019": null, "2020": null, "2021": null, "2022": null, "2023": null, "osm_type": "way", "display_na": "322, Spring Street, Hudson Square, Manhattan, New York County, New York, 10013, United States", "place_id": "13451528", "class": "building", "type_2": "yes", "road": "Spring Street", "village": null, "city_distr": null, "town": null, "city": "New York", "state": "New York", "country": "United States", "postcode": "10013" }, "geometry": { "type": "Point", "coordinates": [ -74.00929735, 40.72587865 ] } },
{ "type": "Feature", "properties": { "OBJECTID": 116, "Match_addr": "494 Broome St #2213, New York, NY 10013", "X": null, "Y": null, "Type": "storefront", "Name": "Sunrise Mart 日系スーパー", "Address": "494 Broome St.", "Borough": "Manhattan", "Produce Ty": "B", "2006": null, "2007": null, "2008": null, "2009": null, "2010": null, "2011": null, "2012": null, "2013": null, "2014": null, "2015": null, "2016": null, "2017": null, "2018": null, "2019": null, "2020": null, "2021": null, "2022": null, "2023": null, "osm_type": null, "display_na": null, "place_id": null, "class": null, "type_2": null, "road": null, "village": null, "city_distr": null, "town": null, "city": null, "state": null, "country": null, "postcode": null }, "geometry": null },
{ "type": "Feature", "properties": { "OBJECTID": 117, "Match_addr": "400 Broome St, New York, NY 10013", "X": null, "Y": null, "Type": "storefront", "Name": "Taasha Deli", "Address": "400 Broome St.", "Borough": "Manhattan", "Produce Ty": "B", "2006": null, "2007": null, "2008": null, "2009": null, "2010": null, "2011": null, "2012": null, "2013": null, "2014": null, "2015": null, "2016": null, "2017": null, "2018": null, "2019": null, "2020": null, "2021": null, "2022": null, "2023": null, "osm_type": "node", "display_na": "Taasha Deli Grocery, 400, Broome Street, Little Italy, Manhattan, New York County, New York, 10013, United States", "place_id": "15289964", "class": "shop", "type_2": "convenience", "road": "Broome Street", "village": null, "city_distr": null, "town": null, "city": "New York", "state": "New York", "country": "United States", "postcode": "10013" }, "geometry": { "type": "Point", "coordinates": [ -73.9974599, 40.7208798 ] } },
{ "type": "Feature", "properties": { "OBJECTID": 118, "Match_addr": "20 Thompson St, #1A, New York, NY 10013", "X": null, "Y": null, "Type": "storefront", "Name": "Thompson Finest Deli", "Address": "20 Thompson St.", "Borough": "Manhattan", "Produce Ty": "B", "2006": null, "2007": null, "2008": null, "2009": null, "2010": null, "2011": null, "2012": null, "2013": null, "2014": null, "2015": null, "2016": null, "2017": null, "2018": null, "2019": null, "2020": null, "2021": null, "2022": null, "2023": null, "osm_type": null, "display_na": null, "place_id": null, "class": null, "type_2": null, "road": null, "village": null, "city_distr": null, "town": null, "city": null, "state": null, "country": null, "postcode": null }, "geometry": null },
{ "type": "Feature", "properties": { "OBJECTID": 119, "Match_addr": "91 Mulberry St, New York, NY 10013", "X": null, "Y": null, "Type": "storefront", "Name": "Tokyo Mart", "Address": "91 Mulberry St.", "Borough": "Manhattan", "Produce Ty": "B", "2006": null, "2007": null, "2008": null, "2009": null, "2010": null, "2011": null, "2012": null, "2013": null, "2014": null, "2015": null, "2016": null, "2017": null, "2018": null, "2019": null, "2020": null, "2021": null, "2022": null, "2023": null, "osm_type": "way", "display_na": "91, Mulberry Street, Manhattan Community Board 3, Manhattan, New York County, New York, 10013, United States", "place_id": "15326325", "class": "building", "type_2": "yes", "road": "Mulberry Street", "village": null, "city_distr": null, "town": null, "city": "New York", "state": "New York", "country": "United States", "postcode": "10013" }, "geometry": { "type": "Point", "coordinates": [ -73.999076241412851, 40.7168545 ] } }
]
}
