{
"type": "FeatureCollection",
"name": "Vendor Vegetables",
"crs": { "type": "name", "properties": { "name": "urn:ogc:def:crs:OGC:1.3:CRS84" } },
"features": [
{ "type": "Feature", "properties": { "OBJECTID": 1, "Match_addr": "111 Chrystie St, New York, New York, 10002", "X": -73.99383945, "Y": 40.71852002, "Type": "storefront", "Name": "Choi Kun Heung Inc.", "Address": "111 Chrystie St.", "Borough": "Manhattan", "Produce Ty": "V", "2006": 1, "2007": 1, "2008": 1, "2009": 1, "2010": 1, "2011": 1, "2012": 1, "2013": 1, "2014": 1, "2015": 0, "2016": 0, "2017": 0, "2018": 0, "2019": 0, "2020": 0, "2021": 0, "2022": 0, "2023": 0, "osm_type": "way", "display_na": "111, Chrystie Street, Manhattan Community Board 3, Manhattan, New York County, New York, 10002, United States", "place_id": "15149949", "class": "building", "type_2": "yes", "road": "Chrystie Street", "village": null, "city_distr": null, "town": null, "city": "New York", "state": "New York", "country": "United States", "postcode": "10002" }, "geometry": { "type": "Point", "coordinates": [ -73.993977721666681, 40.71855415 ] } },
{ "type": "Feature", "properties": { "OBJECTID": 5, "Match_addr": "240 Grand St, New York, New York, 10002", "X": -73.99449592000001, "Y": 40.7184712, "Type": "storefront", "Name": "United E Group", "Address": "240 Grand St.", "Borough": "Manhattan", "Produce Ty": "V", "2006": 1, "2007": 1, "2008": 1, "2009": 0, "2010": 0, "2011": 0, "2012": 0, "2013": 0, "2014": 0, "2015": 0, "2016": 0, "2017": 0, "2018": 0, "2019": 0, "2020": 0, "2021": 0, "2022": 0, "2023": 0, "osm_type": "node", "display_na": "240, Grand Street, Manhattan Community Board 3, Manhattan, New York County, New York, 10002, United States", "place_id": "15311844", "class": "place", "type_2": "house", "road": "Grand Street", "village": null, "city_distr": null, "town": null, "city": "New York", "state": "New York", "country": "United States", "postcode": "10002" }, "geometry": { "type": "Point", "coordinates": [ -73.9943912, 40.7184432 ] } },
{ "type": "Feature", "properties": { "OBJECTID": 8, "Match_addr": "233 Grand St, New York, New York, 10013", "X": -73.99504103, "Y": 40.71848262, "Type": "cart", "Name": "Long Luffa", "Address": "233 Grand St.", "Borough": "Manhattan", "Produce Ty": "V", "2006": 1, "2007": 1, "2008": 1, "2009": 1, "2010": 1, "2011": 1, "2012": 1, "2013": 1, "2014": 1, "2015": 1, "2016": 1, "2017": 1, "2018": 1, "2019": 1, "2020": 1, "2021": 1, "2022": 1, "2023": 1, "osm_type": "way", "display_na": "233, Grand Street, Little Italy, Manhattan, New York County, New York, 10013, United States", "place_id": "336919607", "class": "place", "type_2": "house", "road": "Grand Street", "village": null, "city_distr": null, "town": null, "city": "New York", "state": "New York", "country": "United States", "postcode": "10013" }, "geometry": { "type": "Point", "coordinates": [ -73.9951005, 40.718470833333335 ] } },
{ "type": "Feature", "properties": { "OBJECTID": 9, "Match_addr": "231 Grand St, New York, New York, 10013", "X": -73.99517519, "Y": 40.71848163, "Type": "cart", "Name": "Washing Fuzzy Melon", "Address": "231 Grand St.", "Borough": "Manhattan", "Produce Ty": "V", "2006": 1, "2007": 1, "2008": 1, "2009": 1, "2010": 1, "2011": 1, "2012": 1, "2013": 1, "2014": 1, "2015": 1, "2016": 1, "2017": 1, "2018": 1, "2019": 1, "2020": 1, "2021": 1, "2022": 1, "2023": 1, "osm_type": "way", "display_na": "231, Grand Street, Little Italy, Manhattan, New York County, New York, 10013, United States", "place_id": "336919607", "class": "place", "type_2": "house", "road": "Grand Street", "village": null, "city_distr": null, "town": null, "city": "New York", "state": "New York", "country": "United States", "postcode": "10013" }, "geometry": { "type": "Point", "coordinates": [ -73.9952, 40.718506666666663 ] } },
{ "type": "Feature", "properties": { "OBJECTID": 15, "Match_addr": "205 Grand St, New York, New York, 10013", "X": -73.99640465, "Y": 40.71892076, "Type": "storefront", "Name": "Sweet Valley Fruit and Vegetable", "Address": "205 Grand St.", "Borough": "Manhattan", "Produce Ty": "V", "2006": 1, "2007": 0, "2008": 0, "2009": 0, "2010": 0, "2011": 0, "2012": 0, "2013": 0, "2014": 0, "2015": 0, "2016": 0, "2017": 0, "2018": 0, "2019": 0, "2020": 0, "2021": 0, "2022": 0, "2023": 0, "osm_type": "node", "display_na": "Qing's Hair Salon, 205, Grand Street, Little Italy, Manhattan, New York County, New York, 10013, United States", "place_id": "15402912", "class": "shop", "type_2": "hairdresser", "road": "Grand Street", "village": null, "city_distr": null, "town": null, "city": "New York", "state": "New York", "country": "United States", "postcode": "10013" }, "geometry": { "type": "Point", "coordinates": [ -73.996442, 40.7188689 ] } },
{ "type": "Feature", "properties": { "OBJECTID": 20, "Match_addr": "138 Mott St, New York, New York, 10013", "X": -73.99653365, "Y": 40.71869013, "Type": "table", "Name": "temp 3", "Address": "138 Mott St.", "Borough": "Manhattan", "Produce Ty": "V", "2006": 1, "2007": 1, "2008": 1, "2009": 1, "2010": 1, "2011": 0, "2012": 0, "2013": 0, "2014": 0, "2015": 0, "2016": 0, "2017": 0, "2018": 0, "2019": 0, "2020": 0, "2021": 0, "2022": 0, "2023": 0, "osm_type": "way", "display_na": "138, Mott Street, Chinatown, Manhattan, New York County, New York, 10013, United States", "place_id": "336919612", "class": "place", "type_2": "house", "road": "Mott Street", "village": null, "city_distr": null, "town": null, "city": "New York", "state": "New York", "country": "United States", "postcode": "10013" }, "geometry": { "type": "Point", "coordinates": [ -73.996540147698326, 40.718637260139893 ] } },
{ "type": "Feature", "properties": { "OBJECTID": 21, "Match_addr": "136 Mott St, New York, New York, 10013", "X": -73.9965811, "Y": 40.71860844, "Type": "table", "Name": "temp 4", "Address": "136 Mott St.", "Borough": "Manhattan", "Produce Ty": "V", "2006": 1, "2007": 1, "2008": 1, "2009": 1, "2010": 1, "2011": 0, "2012": 0, "2013": 0, "2014": 0, "2015": 0, "2016": 0, "2017": 0, "2018": 0, "2019": 0, "2020": 0, "2021": 0, "2022": 0, "2023": 0, "osm_type": "way", "display_na": "136, Mott Street, Chinatown, Manhattan, New York County, New York, 10013, United States", "place_id": "336919612", "class": "place", "type_2": "house", "road": "Mott Street", "village": null, "city_distr": null, "town": null, "city": "New York", "state": "New York", "country": "United States", "postcode": "10013" }, "geometry": { "type": "Point", "coordinates": [ -73.996573255856987, 40.718572442758862 ] } },
{ "type": "Feature", "properties": { "OBJECTID": 22, "Match_addr": "134 Mott St, New York, New York, 10013", "X": -73.99661536000001, "Y": 40.71852896, "Type": "table", "Name": "temp 5", "Address": "134 Mott St.", "Borough": "Manhattan", "Produce Ty": "V", "2006": 1, "2007": 1, "2008": 1, "2009": 1, "2010": 1, "2011": 0, "2012": 0, "2013": 0, "2014": 0, "2015": 0, "2016": 0, "2017": 0, "2018": 0, "2019": 0, "2020": 0, "2021": 0, "2022": 0, "2023": 0, "osm_type": "way", "display_na": "134, Mott Street, Chinatown, Manhattan, New York County, New York, 10013, United States", "place_id": "336919612", "class": "place", "type_2": "house", "road": "Mott Street", "village": null, "city_distr": null, "town": null, "city": "New York", "state": "New York", "country": "United States", "postcode": "10013" }, "geometry": { "type": "Point", "coordinates": [ -73.996606364015634, 40.718507625377832 ] } },
{ "type": "Feature", "properties": { "OBJECTID": 26, "Match_addr": "149 Mott St, New York, New York, 10013", "X": -73.99657456, "Y": 40.71901221, "Type": "cart", "Name": "temp 8", "Address": "149 Mott St.", "Borough": "Manhattan", "Produce Ty": "V", "2006": 1, "2007": 1, "2008": 1, "2009": 1, "2010": 1, "2011": 1, "2012": 1, "2013": 1, "2014": 1, "2015": 1, "2016": 1, "2017": 1, "2018": 1, "2019": 1, "2020": 1, "2021": 1, "2022": 0, "2023": 0, "osm_type": "way", "display_na": "149, Mott Street, Little Italy, Manhattan, New York County, New York, 10013, United States", "place_id": "336919604", "class": "place", "type_2": "house", "road": "Mott Street", "village": null, "city_distr": null, "town": null, "city": "New York", "state": "New York", "country": "United States", "postcode": "10013" }, "geometry": { "type": "Point", "coordinates": [ -73.996631, 40.718956 ] } },
{ "type": "Feature", "properties": { "OBJECTID": 27, "Match_addr": "203 Grand St, New York, New York, 10013", "X": -73.99668477, "Y": 40.71901141, "Type": "table", "Name": "Optical", "Address": "203 Grand St.", "Borough": "Manhattan", "Produce Ty": "V", "2006": 1, "2007": 1, "2008": 1, "2009": 1, "2010": 1, "2011": 1, "2012": 1, "2013": 1, "2014": 1, "2015": 1, "2016": 1, "2017": 1, "2018": 1, "2019": 1, "2020": 1, "2021": 1, "2022": 1, "2023": 1, "osm_type": "node", "display_na": "Manhattan Grand Optical, 203, Grand Street, Little Italy, Manhattan, New York County, New York, 10013, United States", "place_id": "15399087", "class": "shop", "type_2": "optician", "road": "Grand Street", "village": null, "city_distr": null, "town": null, "city": "New York", "state": "New York", "country": "United States", "postcode": "10013" }, "geometry": { "type": "Point", "coordinates": [ -73.9966294, 40.718984 ] } },
{ "type": "Feature", "properties": { "OBJECTID": 31, "Match_addr": "124 Mott St, New York, New York, 10013", "X": -73.99677588, "Y": 40.71823366, "Type": "store", "Name": "WK Vegetable Co.", "Address": "124 Mott St.", "Borough": "Manhattan", "Produce Ty": "V", "2006": 1, "2007": 1, "2008": 1, "2009": 1, "2010": 1, "2011": 1, "2012": 1, "2013": 1, "2014": 1, "2015": 1, "2016": 1, "2017": 1, "2018": 1, "2019": 1, "2020": 1, "2021": 1, "2022": 1, "2023": 1, "osm_type": "node", "display_na": "Hong Li Meat Market, 124, Mott Street, Chinatown, Manhattan, New York County, New York, 10013, United States", "place_id": "15304882", "class": "shop", "type_2": "butcher", "road": "Mott Street", "village": null, "city_distr": null, "town": null, "city": "New York", "state": "New York", "country": "United States", "postcode": "10013" }, "geometry": { "type": "Point", "coordinates": [ -73.9967685, 40.7182341 ] } },
{ "type": "Feature", "properties": { "OBJECTID": 32, "Match_addr": "131 Mott St, New York, New York, 10013", "X": -73.99691812, "Y": 40.7183772, "Type": "storefront", "Name": "Won Chueng Fish Market", "Address": "131 Mott St.", "Borough": "Manhattan", "Produce Ty": "V", "2006": 1, "2007": 1, "2008": 1, "2009": 1, "2010": 1, "2011": 1, "2012": 1, "2013": 1, "2014": 1, "2015": 1, "2016": 1, "2017": 1, "2018": 1, "2019": 1, "2020": 1, "2021": 1, "2022": 1, "2023": 1, "osm_type": "way", "display_na": "131, Mott Street, Little Italy, Manhattan, New York County, New York, 10013, United States", "place_id": "15213818", "class": "building", "type_2": "yes", "road": "Mott Street", "village": null, "city_distr": null, "town": null, "city": "New York", "state": "New York", "country": "United States", "postcode": "10013" }, "geometry": { "type": "Point", "coordinates": [ -73.99698765, 40.7183907 ] } },
{ "type": "Feature", "properties": { "OBJECTID": 33, "Match_addr": "131 Mott St, New York, New York, 10013", "X": -73.99691812, "Y": 40.7183772, "Type": "storefront", "Name": "Won Chueng Fish Market (S side)", "Address": "131 Mott St.", "Borough": "Manhattan", "Produce Ty": "V", "2006": 1, "2007": 1, "2008": 1, "2009": 1, "2010": 1, "2011": 1, "2012": 1, "2013": 1, "2014": 1, "2015": 1, "2016": 1, "2017": 1, "2018": 1, "2019": 1, "2020": 1, "2021": 1, "2022": 1, "2023": 1, "osm_type": "way", "display_na": "131, Mott Street, Little Italy, Manhattan, New York County, New York, 10013, United States", "place_id": "15213818", "class": "building", "type_2": "yes", "road": "Mott Street", "village": null, "city_distr": null, "town": null, "city": "New York", "state": "New York", "country": "United States", "postcode": "10013" }, "geometry": { "type": "Point", "coordinates": [ -73.99698765, 40.7183907 ] } },
{ "type": "Feature", "properties": { "OBJECTID": 34, "Match_addr": "124 Mott St, New York, New York, 10013", "X": -73.99677588, "Y": 40.71823366, "Type": "storefront", "Name": "Tung Lay Meat Market", "Address": "124 Mott St.", "Borough": "Manhattan", "Produce Ty": "V", "2006": 1, "2007": 1, "2008": 1, "2009": 1, "2010": 1, "2011": 1, "2012": 1, "2013": 1, "2014": 1, "2015": 1, "2016": 1, "2017": 1, "2018": 1, "2019": 1, "2020": 1, "2021": 1, "2022": 1, "2023": 1, "osm_type": "node", "display_na": "Hong Li Meat Market, 124, Mott Street, Chinatown, Manhattan, New York County, New York, 10013, United States", "place_id": "15304882", "class": "shop", "type_2": "butcher", "road": "Mott Street", "village": null, "city_distr": null, "town": null, "city": "New York", "state": "New York", "country": "United States", "postcode": "10013" }, "geometry": { "type": "Point", "coordinates": [ -73.9967685, 40.7182341 ] } },
{ "type": "Feature", "properties": { "OBJECTID": 36, "Match_addr": "121 Mott St, New York, New York, 10013", "X": -73.99712817, "Y": 40.71802981, "Type": "storefront", "Name": "Farmerâ€™s Market", "Address": "121 Mott St.", "Borough": "Manhattan", "Produce Ty": "V", "2006": 1, "2007": 1, "2008": 1, "2009": 0, "2010": 0, "2011": 0, "2012": 0, "2013": 0, "2014": 0, "2015": 0, "2016": 0, "2017": 0, "2018": 0, "2019": 0, "2020": 0, "2021": 0, "2022": 0, "2023": 0, "osm_type": "node", "display_na": "12 Corners, 121, Mott Street, Little Italy, Manhattan, New York County, New York, 10013, United States", "place_id": "15349195", "class": "amenity", "type_2": "cafe", "road": "Mott Street", "village": null, "city_distr": null, "town": null, "city": "New York", "state": "New York", "country": "United States", "postcode": "10013" }, "geometry": { "type": "Point", "coordinates": [ -73.997117, 40.7180559 ] } },
{ "type": "Feature", "properties": { "OBJECTID": 37, "Match_addr": "108 Mott St, New York, New York, 10013", "X": -73.99721155, "Y": 40.7175752, "Type": "makeshift", "Name": "pre-construction fruit", "Address": "108 Mott St.", "Borough": "Manhattan", "Produce Ty": "V", "2006": 1, "2007": 0, "2008": 0, "2009": 0, "2010": 0, "2011": 0, "2012": 0, "2013": 0, "2014": 0, "2015": 0, "2016": 0, "2017": 0, "2018": 0, "2019": 0, "2020": 0, "2021": 0, "2022": 0, "2023": 0, "osm_type": "way", "display_na": "108, Mott Street, Chinatown, Manhattan, New York County, New York, 10013, United States", "place_id": "336918311", "class": "place", "type_2": "house", "road": "Mott Street", "village": null, "city_distr": null, "town": null, "city": "New York", "state": "New York", "country": "United States", "postcode": "10013" }, "geometry": { "type": "Point", "coordinates": [ -73.997300571428568, 40.717366428571424 ] } },
{ "type": "Feature", "properties": { "OBJECTID": 49, "Match_addr": "202 Canal St, New York, New York, 10013", "X": -73.99851555, "Y": 40.71692298, "Type": "cart", "Name": "Taipan Bakery II", "Address": "202 Canal St.", "Borough": "Manhattan", "Produce Ty": "V", "2006": 1, "2007": 1, "2008": 1, "2009": 1, "2010": 1, "2011": 1, "2012": 1, "2013": 1, "2014": 1, "2015": 1, "2016": 1, "2017": 1, "2018": 1, "2019": 1, "2020": 1, "2021": 1, "2022": 1, "2023": 1, "osm_type": "node", "display_na": "202, Canal Street, Chinatown, Manhattan, New York County, New York, 10013, United States", "place_id": "15207343", "class": "place", "type_2": "house", "road": "Canal Street", "village": null, "city_distr": null, "town": null, "city": "New York", "state": "New York", "country": "United States", "postcode": "10013" }, "geometry": { "type": "Point", "coordinates": [ -73.9985141, 40.7169147 ] } },
{ "type": "Feature", "properties": { "OBJECTID": 51, "Match_addr": "91 Mulberry St, New York, New York, 10013", "X": -73.99889206, "Y": 40.71679951, "Type": "cart", "Name": "Chinatrust II", "Address": "91 Mulberry St.", "Borough": "Manhattan", "Produce Ty": "V", "2006": 1, "2007": 0, "2008": 0, "2009": 0, "2010": 0, "2011": 0, "2012": 0, "2013": 0, "2014": 0, "2015": 0, "2016": 0, "2017": 0, "2018": 0, "2019": 0, "2020": 0, "2021": 0, "2022": 0, "2023": 0, "osm_type": "way", "display_na": "91, Mulberry Street, Manhattan Community Board 3, Manhattan, New York County, New York, 10013, United States", "place_id": "15326325", "class": "building", "type_2": "yes", "road": "Mulberry Street", "village": null, "city_distr": null, "town": null, "city": "New York", "state": "New York", "country": "United States", "postcode": "10013" }, "geometry": { "type": "Point", "coordinates": [ -73.999076241412851, 40.7168545 ] } },
{ "type": "Feature", "properties": { "OBJECTID": 53, "Match_addr": "79 Bayard St, New York, New York, 10013", "X": -73.99874421, "Y": 40.71564143, "Type": "store", "Name": "Sung Hung Lee", "Address": "79 Bayard", "Borough": "Manhattan", "Produce Ty": "V", "2006": 1, "2007": 1, "2008": 1, "2009": 1, "2010": 1, "2011": 1, "2012": 1, "2013": 1, "2014": 1, "2015": 1, "2016": 1, "2017": 1, "2018": 1, "2019": 1, "2020": 1, "2021": 1, "2022": 1, "2023": 1, "osm_type": "node", "display_na": "79, Bayard Street, Manhattan Community Board 3, Manhattan, New York County, New York, 10013, United States", "place_id": "15234692", "class": "place", "type_2": "house", "road": "Bayard Street", "village": null, "city_distr": null, "town": null, "city": "New York", "state": "New York", "country": "United States", "postcode": "10013" }, "geometry": { "type": "Point", "coordinates": [ -73.9987427, 40.7156332 ] } },
{ "type": "Feature", "properties": { "OBJECTID": 60, "Match_addr": "152 Centre St, New York, New York, 10013", "X": -74.00001549, "Y": 40.71773041, "Type": "cart", "Name": "Non-Chinese", "Address": "152 Centre St.", "Borough": "Manhattan", "Produce Ty": "V", "2006": 1, "2007": 0, "2008": 0, "2009": 0, "2010": 0, "2011": 0, "2012": 0, "2013": 0, "2014": 0, "2015": 0, "2016": 0, "2017": 0, "2018": 0, "2019": 0, "2020": 0, "2021": 0, "2022": 0, "2023": 0, "osm_type": "way", "display_na": "152, Centre Street, Chinatown, Manhattan, New York County, New York, 10013, United States", "place_id": "336916505", "class": "place", "type_2": "house", "road": "Centre Street", "village": null, "city_distr": null, "town": null, "city": "New York", "state": "New York", "country": "United States", "postcode": "10013" }, "geometry": { "type": "Point", "coordinates": [ -74.0004158, 40.7172798 ] } },
{ "type": "Feature", "properties": { "OBJECTID": 87, "Match_addr": "121 Bowery, New York, New York, 10002", "X": -73.99480832, "Y": 40.71809129, "Type": "storefront", "Name": "Tin Tin", "Address": "121 Bowery", "Borough": "Manhattan", "Produce Ty": "V", "2006": 1, "2007": 1, "2008": 1, "2009": 1, "2010": 1, "2011": 1, "2012": 1, "2013": 1, "2014": 1, "2015": 1, "2016": 1, "2017": 1, "2018": 1, "2019": 1, "2020": 1, "2021": 1, "2022": 1, "2023": 1, "osm_type": "node", "display_na": "Tak Wah Kung Fu Club, 121, Bowery, Manhattan Community Board 3, Manhattan, New York County, New York, 10002, United States", "place_id": "15171587", "class": "leisure", "type_2": "sports_centre", "road": "Bowery", "village": null, "city_distr": null, "town": null, "city": "New York", "state": "New York", "country": "United States", "postcode": "10002" }, "geometry": { "type": "Point", "coordinates": [ -73.9946776, 40.718041 ] } }
]
}
