{
"type": "FeatureCollection",
"name": "Vendor Longan+Lychee",
"crs": { "type": "name", "properties": { "name": "urn:ogc:def:crs:OGC:1.3:CRS84" } },
"features": [
{ "type": "Feature", "properties": { "OBJECTID": 12, "Match_addr": "217 Grand St, New York, New York, 10013", "X": -73.99598145, "Y": 40.71875765, "Type": "cart", "Name": "Afei", "Address": "217 Grand St.", "Borough": "Manhattan", "Produce Ty": "longan/lychee", "2006": 1, "2007": 1, "2008": 1, "2009": 1, "2010": 1, "2011": 1, "2012": 1, "2013": 1, "2014": 1, "2015": 1, "2016": 1, "2017": 1, "2018": 1, "2019": 1, "2020": 1, "2021": 1, "2022": 1, "2023": 1, "osm_type": "node", "display_na": "217, Grand Street, Little Italy, Manhattan, New York County, New York, 10013, United States", "place_id": "15462722", "class": "place", "type_2": "house", "road": "Grand Street", "village": null, "city_distr": null, "town": null, "city": "New York", "state": "New York", "country": "United States", "postcode": "10013" }, "geometry": { "type": "Point", "coordinates": [ -73.99598, 40.7187494 ] } },
{ "type": "Feature", "properties": { "OBJECTID": 42, "Match_addr": "184 Canal St, New York, New York, 10013", "X": -73.99805907, "Y": 40.71675685, "Type": "cart", "Name": "Mou Cheng Optical", "Address": "184 Canal St.", "Borough": "Manhattan", "Produce Ty": "longan/lychee", "2006": 1, "2007": 0, "2008": 0, "2009": 0, "2010": 0, "2011": 0, "2012": 0, "2013": 0, "2014": 0, "2015": 0, "2016": 0, "2017": 0, "2018": 0, "2019": 0, "2020": 0, "2021": 0, "2022": 0, "2023": 0, "osm_type": "way", "display_na": "184, Canal Street, Manhattan Community Board 3, Manhattan, New York County, New York, 10013, United States", "place_id": "336919613", "class": "place", "type_2": "house", "road": "Canal Street", "village": null, "city_distr": null, "town": null, "city": "New York", "state": "New York", "country": "United States", "postcode": "10013" }, "geometry": { "type": "Point", "coordinates": [ -73.997449249999988, 40.716613625 ] } },
{ "type": "Feature", "properties": { "OBJECTID": 63, "Match_addr": "153 Centre St, New York, New York, 10013", "X": -74.00026619, "Y": 40.7178623, "Type": "cart", "Name": "Nice Cart", "Address": "153 C Centre St.", "Borough": "Manhattan", "Produce Ty": "longan/lychee", "2006": 1, "2007": 1, "2008": 1, "2009": 1, "2010": 1, "2011": 1, "2012": 1, "2013": 1, "2014": 1, "2015": 1, "2016": 1, "2017": 1, "2018": 1, "2019": 1, "2020": 0, "2021": 0, "2022": 0, "2023": 0, "osm_type": "node", "display_na": "153, Centre Street, Chinatown, Manhattan, New York County, New York, 10013, United States", "place_id": "13546723", "class": "place", "type_2": "house", "road": "Centre Street", "village": null, "city_distr": null, "town": null, "city": "New York", "state": "New York", "country": "United States", "postcode": "10013" }, "geometry": { "type": "Point", "coordinates": [ -74.0002465, 40.7178507 ] } },
{ "type": "Feature", "properties": { "OBJECTID": 66, "Match_addr": "224 Canal St, New York, New York, 10013", "X": -73.99955138, "Y": 40.71752794, "Type": "cart", "Name": "fish corner", "Address": "224 Canal St.", "Borough": "Manhattan", "Produce Ty": "longan/lychee", "2006": 1, "2007": 1, "2008": 1, "2009": 1, "2010": 1, "2011": 1, "2012": 0, "2013": 0, "2014": 0, "2015": 0, "2016": 0, "2017": 0, "2018": 0, "2019": 0, "2020": 0, "2021": 0, "2022": 0, "2023": 0, "osm_type": "node", "display_na": "NYC Gift's Town, 224, Canal Street, Chinatown, Manhattan, New York County, New York, 10013, United States", "place_id": "404584863", "class": "shop", "type_2": "gift", "road": "Canal Street", "village": null, "city_distr": null, "town": null, "city": "New York", "state": "New York", "country": "United States", "postcode": "10013" }, "geometry": { "type": "Point", "coordinates": [ -73.9995055, 40.7175005 ] } },
{ "type": "Feature", "properties": { "OBJECTID": 80, "Match_addr": "57 E Broadway, New York, New York, 10002", "X": -73.99537342000001, "Y": 40.7135149, "Type": "storefront", "Name": "Lou Cheng Market Inc.", "Address": "57 East Broadway", "Borough": "Manhattan", "Produce Ty": "longan/lychee", "2006": 1, "2007": 1, "2008": 1, "2009": 1, "2010": 1, "2011": 1, "2012": 1, "2013": 1, "2014": 1, "2015": 1, "2016": 1, "2017": 1, "2018": 1, "2019": 1, "2020": 1, "2021": 1, "2022": 1, "2023": 1, "osm_type": "way", "display_na": "57, East Broadway, Manhattan Community Board 3, Manhattan, New York County, New York, 10002, United States", "place_id": "15273748", "class": "building", "type_2": "yes", "road": "East Broadway", "village": null, "city_distr": null, "town": null, "city": "New York", "state": "New York", "country": "United States", "postcode": "10002" }, "geometry": { "type": "Point", "coordinates": [ -73.995362370175144, 40.7134453 ] } }
]
}
